ms_today;input_voltage;temp_mos_max;temp_mos_1;temp_mos_2;temp_mos_3;temp_motor;current_motor;current_in;d_axis_current;q_axis_current;erpm;duty_cycle;amp_hours_used;amp_hours_charged;watt_hours_used;watt_hours_charged;tachometer;tachometer_abs;encoder_position;fault_code;vesc_id;d_axis_voltage;q_axis_voltage;ms_today_setup;amp_hours_setup;amp_hours_charged_setup;watt_hours_setup;watt_hours_charged_setup;battery_level;battery_wh_tot;current_in_setup;current_motor_setup;speed_meters_per_sec;tacho_meters;tacho_abs_meters;num_vescs;ms_today_imu;roll;pitch;yaw;accX;accY;accZ;gyroX;gyroY;gyroZ;gnss_posTime;gnss_lat;gnss_lon;gnss_alt;gnss_gVel;gnss_vVel;gnss_hAcc;gnss_vAcc;
40026425;51,6;35,9;36;28,5;28,3;-72,1;0,49;0;-0,01;-0,49;0;0;0,0029;0;0,1512;0;52;358;33,6962;0;28;0,056;-0,042;40025428;0,0029;0;0,1512;0;1,013;229,555;0;0,04;0;0,753;5,186;1;40025447;0;0;0;0;0;0;0;0;0;-1;0,00000000;0,00000000;0,00000000;0,00000000;0,00000000;0,00000000;0,00000000;
40026481;51,6;35,9;35,9;28,4;28,3;-72,3;0,44;0;0;-0,44;0;0;0,0029;0;0,1512;0;52;358;33,1832;0;28;0,057;-0,039;40026426;0,0029;0;0,1512;0;1,013;229,547;0;0,21;0;0,753;5,186;1;40026437;0;0;0;0;0;0;0;0;0;-1;0,00000000;0,00000000;0,00000000;0,00000000;0,00000000;0,00000000;0,00000000;
40026577;51,6;35,8;36,1;28,5;28,3;-73;0,43;0;0;-0,42;0;0;0,0029;0;0,1512;0;52;358;32,9129;0;28;0,058;-0,038;40026483;0,0029;0;0,1512;0;1,013;229,547;0;0,66;0;0,753;5,186;1;40026530;0;0;0;0;0;0;0;0;0;-1;0,00000000;0,00000000;0,00000000;0,00000000;0,00000000;0,00000000;0,00000000;
40026644;51,6;35,8;36;28,4;28,2;-72,9;0,43;0;0,01;-0,43;0;0;0,0029;0;0,1512;0;52;358;32,7367;0;28;0,058;-0,039;40026578;0,0029;0;0,1512;0;1,013;229,548;0;0,45;0;0,753;5,186;1;40026595;0;0;0;0;0;0;0;0;0;-1;0,00000000;0,00000000;0,00000000;0,00000000;0,00000000;0,00000000;0,00000000;
40026709;51,6;35,8;36;28,3;28,2;-72,7;0,51;0;0;-0,5;0;0;0,0029;0;0,1512;0;52;358;32,7657;0;28;0,058;-0,038;40026644;0,0029;0;0,1512;0;1,013;229,548;0;0,15;0;0,753;5,186;1;40026662;0;0;0;0;0;0;0;0;0;-1;0,00000000;0,00000000;0,00000000;0,00000000;0,00000000;0,00000000;0,00000000;
40026753;51,6;35,8;35,9;28,2;28,1;-72,5;0,4;0;0;-0,39;0;0;0,0029;0;0,1512;0;52;358;32,3134;0;28;0,058;-0,039;40026732;0,0029;0;0,1512;0;1,013;229,549;0;0,4;0;0,753;5,186;1;40026732;0;0;0;0;0;0;0;0;0;-1;0,00000000;0,00000000;0,00000000;0,00000000;0,00000000;0,00000000;0,00000000;
40026820;51,6;35,8;35,9;28,4;28,2;-72,4;0,46;0;0,03;-0,45;0;0;0,0029;0;0,1512;0;52;358;32,258;0;28;0,058;-0,038;40026732;0,0029;0;0,1512;0;1,013;229,549;0;0,4;0;0,753;5,186;1;40026732;0;0;0;0;0;0;0;0;0;-1;0,00000000;0,00000000;0,00000000;0,00000000;0,00000000;0,00000000;0,00000000;
40026889;51,6;35,8;35,9;28,3;28,1;-72,3;0,41;0;0,02;-0,4;0;0;0,0029;0;0,1512;0;52;358;32,0125;0;28;0,058;-0,037;40026821;0,0029;0;0,1512;0;1,013;229,55;0,02;-0,18;0;0,753;5,186;1;40026844;0;0;0;0;0;0;0;0;0;-1;0,00000000;0,00000000;0,00000000;0,00000000;0,00000000;0,00000000;0,00000000;
40026957;51,6;35,9;35,8;28,3;28,1;-72,4;0,48;0;0,02;-0,48;0;0;0,0029;0;0,1512;0;52;358;31,8219;0;28;0,058;-0,038;40026889;0,0029;0;0,1512;0;1,013;229,551;0;0,12;0;0,753;5,186;1;40026911;0;0;0;0;0;0;0;0;0;-1;0,00000000;0,00000000;0,00000000;0,00000000;0,00000000;0,00000000;0,00000000;
40027035;51,6;35,9;35,8;28,3;28,1;-72,8;0,45;0;0,03;-0,44;0;0;0,0029;0;0,1512;0;52;358;31,3576;0;28;0,058;-0,037;40026981;0,0029;0;0,1512;0;1,013;229,553;0;0,36;0;0,753;5,186;1;40026981;0;0;0;0;0;0;0;0;0;-1;0,00000000;0,00000000;0,00000000;0,00000000;0,00000000;0,00000000;0,00000000;
40027073;51,6;35,8;35,8;28,2;28;-72,9;0,44;0;0,01;-0,44;0;0;0,0029;0;0,1512;0;52;358;31,259;0;28;0,059;-0,037;40026981;0,0029;0;0,1512;0;1,013;229,553;0;0,36;0;0,753;5,186;1;40026981;0;0;0;0;0;0;0;0;0;-1;0,00000000;0,00000000;0,00000000;0,00000000;0,00000000;0,00000000;0,00000000;
40027122;51,6;35,9;35,8;28,3;28,1;-72,9;0,34;0;0,03;-0,33;0;0;0,0029;0;0,1512;0;52;358;31,1579;0;28;0,058;-0,035;40027073;0,0029;0;0,1512;0;1,013;229,554;0;0,37;0;0,753;5,186;1;40027090;0;0;0;0;0;0;0;0;0;-1;0,00000000;0,00000000;0,00000000;0,00000000;0,00000000;0,00000000;0,00000000;
40027157;51,6;35,8;36;28,4;28,2;-72,8;0,26;0;0,03;-0,26;0;0;0,0029;0;0,1512;0;52;358;31,2953;0;28;0,058;-0,036;40027123;0,0029;0;0,1512;0;1,013;229,555;0;-0,25;0;0,753;5,186;1;40027090;0;0;0;0;0;0;0;0;0;-1;0,00000000;0,00000000;0,00000000;0,00000000;0,00000000;0,00000000;0,00000000;
40027236;51,6;35,9;35,9;28,3;28,1;-72,8;0,31;0;0,03;-0,3;0;0;0,0029;0;0,1512;0;52;358;31,0231;0;28;0,058;-0,036;40027170;0,0029;0;0,1512;0;1,013;229,556;0;0,28;0;0,753;5,186;1;40027187;0;0;0;0;0;0;0;0;0;-1;0,00000000;0,00000000;0,00000000;0,00000000;0,00000000;0,00000000;0,00000000;
40027294;51,6;35,8;35,9;28,3;28,1;-72,6;0,27;0;0,02;-0,26;0;0;0,0029;0;0,1512;0;52;358;31,1719;0;28;0,059;-0,036;40027237;0,0029;0;0,1512;0;1,013;229,556;0;-0,24;0;0,753;5,186;1;40027247;0;0;0;0;0;0;0;0;0;-1;0,00000000;0,00000000;0,00000000;0,00000000;0,00000000;0,00000000;0,00000000;
40027361;51,6;35,9;35,9;28,2;28;-72,3;0,22;0;0,03;-0,21;0;0;0,0029;0;0,1512;0;52;358;30,8713;0;28;0,059;-0,036;40027295;0,0029;0;0,1512;0;1,013;229,557;0;-0,21;0;0,753;5,186;1;40027315;0;0;0;0;0;0;0;0;0;-1;0,00000000;0,00000000;0,00000000;0,00000000;0,00000000;0,00000000;0,00000000;
40027451;51,6;35,9;35,9;28,4;28,2;-72,4;0,3;0;0,02;-0,29;0;0;0,0029;0;0,1512;0;52;358;31,0006;0;28;0,059;-0,035;40027361;0,0029;0;0,1512;0;1,013;229,557;0;0,21;0;0,753;5,186;1;40027406;0;0;0;0;0;0;0;0;0;-1;0,00000000;0,00000000;0,00000000;0,00000000;0,00000000;0,00000000;0,00000000;
40027519;51,6;35,9;35,9;28,3;28,1;-72,4;0,29;0;0,02;-0,28;0;0;0,0029;0;0,1512;0;52;358;30,9266;0;28;0,059;-0,035;40027451;0,0029;0;0,1512;0;1,013;229,558;0;-0,27;0;0,753;5,186;1;40027474;0;0;0;0;0;0;0;0;0;-1;0,00000000;0,00000000;0,00000000;0,00000000;0,00000000;0,00000000;0,00000000;
40027608;51,6;35,9;35,9;28,3;28,1;-72,5;0,24;0;0,03;-0,23;0;0;0,0029;0;0,1512;0;52;358;30,7408;0;28;0,059;-0,036;40027520;0,0029;0;0,1512;0;1,013;229,559;0;-0,1;0;0,753;5,186;1;40027541;0;0;0;0;0;0;0;0;0;-1;0,00000000;0,00000000;0,00000000;0,00000000;0,00000000;0,00000000;0,00000000;
40027676;51,6;35,9;35,8;28,2;28,1;-72,4;0,31;0;0,01;-0,3;0;0;0,0029;0;0,1512;0;52;358;30,6468;0;28;0,059;-0,036;40027609;0,0029;0;0,1512;0;1,013;229,56;0;-0,23;0;0,753;5,186;1;40027632;0;0;0;0;0;0;0;0;0;-1;0,00000000;0,00000000;0,00000000;0,00000000;0,00000000;0,00000000;0,00000000;
40027745;51,6;35,8;35,9;28,3;28,2;-72,8;0,36;0;0,03;-0,34;0;0;0,0029;0;0,1512;0;52;358;30,3907;0;28;0,059;-0,036;40027699;0,0029;0;0,1512;0;1,013;229,56;0;-0,09;0;0,753;5,186;1;40027721;0;0;0;0;0;0;0;0;0;-1;0,00000000;0,00000000;0,00000000;0,00000000;0,00000000;0,00000000;0,00000000;
40027810;51,6;35,9;36;28,5;28,3;-72,8;0,41;0;0,04;-0,4;0;0;0,0029;0;0,1512;0;52;358;30,2071;0;28;0,059;-0,036;40027746;0,0029;0;0,1512;0;1,013;229,56;0;0,04;0;0,753;5,186;1;40027721;0;0;0;0;0;0;0;0;0;-1;0,00000000;0,00000000;0,00000000;0,00000000;0,00000000;0,00000000;0,00000000;
40027930;51,6;35,9;36,1;28,5;28,3;-74,1;0,37;0;0,01;-0,36;0;0;0,0029;0;0,1512;0;52;358;30,0823;0;28;0,06;-0,035;40027811;0,0029;0;0,1512;0;1,013;229,561;0;-0,06;0;0,753;5,186;1;40027834;0;0;0;0;0;0;0;0;0;-1;0,00000000;0,00000000;0,00000000;0,00000000;0,00000000;0,00000000;0,00000000;
40027992;51,6;35,9;36;28,3;28,2;-72,9;0,48;0;0,04;-0,48;0;0;0,0029;0;0,1512;0;52;358;30,0021;0;28;0,06;-0,036;40027930;0,0029;0;0,1512;0;1,013;229,56;0;-0,14;0;0,753;5,186;1;40027951;0;0;0;0;0;0;0;0;0;-1;0,00000000;0,00000000;0,00000000;0,00000000;0,00000000;0,00000000;0,00000000;
40028058;51,6;35,9;35,8;28,3;28,1;-73,5;0,41;0;0,03;-0,4;0;0;0,0029;0;0,1512;0;52;358;29,5939;0;28;0,06;-0,035;40027992;0,0029;0;0,1512;0;1,013;229,56;0;0,13;0;0,753;5,186;1;40028011;0;0;0;0;0;0;0;0;0;-1;0,00000000;0,00000000;0,00000000;0,00000000;0,00000000;0,00000000;0,00000000;
40028126;51,6;35,9;36;28,3;28,2;-73,9;0,43;0;0,02;-0,42;0;0;0,0029;0;0,1512;0;52;358;29,5109;0;28;0,06;-0,034;40028059;0,0029;0;0,1512;0;1,013;229,56;0,01;0,21;0;0,753;5,186;1;40028086;0;0;0;0;0;0;0;0;0;-1;0,00000000;0,00000000;0,00000000;0,00000000;0,00000000;0,00000000;0,00000000;
40028172;51,6;35,8;35,9;28,3;28,2;-73,2;0,45;0;0,04;-0,44;0;0;0,0029;0;0,1512;0;52;358;29,5336;0;28;0,06;-0,035;40028127;0,0029;0;0,1512;0;1,013;229,56;0;0,33;0;0,753;5,186;1;40028086;0;0;0;0;0;0;0;0;0;-1;0,00000000;0,00000000;0,00000000;0,00000000;0,00000000;0,00000000;0,00000000;
40028238;51,6;35,9;35,9;28,3;28,2;-72,9;0,5;0;0,04;-0,49;0;0;0,0029;0;0,1512;0;52;358;29,1682;0;28;0,061;-0,035;40028172;0,0029;0;0,1512;0;1,013;229,56;0;-0,17;0;0,753;5,186;1;40028194;0;0;0;0;0;0;0;0;0;-1;0,00000000;0,00000000;0,00000000;0,00000000;0,00000000;0,00000000;0,00000000;
40028328;51,6;35,9;36;28,4;28,2;-72,5;0,31;0;0,03;-0,3;0;0;0,0029;0;0,1512;0;52;358;28,9545;0;28;0,06;-0,034;40028239;0,0029;0;0,1512;0;1,013;229,56;0;-0,34;0;0,753;5,186;1;40028287;0;0;0;0;0;0;0;0;0;-1;0,00000000;0,00000000;0,00000000;0,00000000;0,00000000;0,00000000;0,00000000;
40028374;51,6;35,9;36;28,4;28,2;-73,3;0,21;0;0,03;-0,2;0;0;0,0029;0;0,1512;0;52;358;29,151;0;28;0,06;-0,033;40028329;0,0029;0;0,1512;0;1,013;229,561;0;0,07;0;0,753;5,186;1;40028287;0;0;0;0;0;0;0;0;0;-1;0,00000000;0,00000000;0,00000000;0,00000000;0,00000000;0,00000000;0,00000000;
40028442;51,6;35,9;36;28,3;28,2;-74;0,24;0;0,04;-0,23;0;0;0,0029;0;0,1512;0;52;358;29,0322;0;28;0,06;-0,034;40028374;0,0029;0;0,1512;0;1,013;229,561;0;-0,1;0;0,753;5,186;1;40028396;0;0;0;0;0;0;0;0;0;-1;0,00000000;0,00000000;0,00000000;0,00000000;0,00000000;0,00000000;0,00000000;
40028577;51,6;35,9;36;28,5;28,3;-74,2;0,29;0;0,03;-0,29;0;0;0,0029;0;0,1512;0;52;358;29,3044;0;28;0,06;-0,033;40028443;0,0029;0;0,1512;0;1,013;229,561;0;-0,35;0;0,753;5,186;1;40028464;0;0;0;0;0;0;0;0;0;-1;0,00000000;0,00000000;0,00000000;0,00000000;0,00000000;0,00000000;0,00000000;
40028643;51,6;35,9;36;28,3;28,2;-74;0,29;0;0,04;-0,28;0;0;0,0029;0;0,1512;0;52;358;29,339;0;28;0,06;-0,034;40028578;0,0029;0;0,1512;0;1,013;229,562;0;0,27;0;0,753;5,186;1;40028598;0;0;0;0;0;0;0;0;0;-1;0,00000000;0,00000000;0,00000000;0,00000000;0,00000000;0,00000000;0,00000000;
40028756;51,6;35,9;36,1;28,4;28,2;-74;0,14;0;0,03;-0,14;0;0;0,0029;0;0,1512;0;52;358;29,5481;0;28;0,059;-0,033;40028644;0,0029;0;0,1512;0;1,013;229,561;0;-0,23;0;0,753;5,186;1;40028669;0;0;0;0;0;0;0;0;0;-1;0,00000000;0,00000000;0,00000000;0,00000000;0,00000000;0,00000000;0,00000000;
40028824;51,6;35,9;35,9;28,3;28,2;-73,1;0,27;0;0,02;-0,26;0;0;0,0029;0;0,1512;0;52;358;29,4314;0;28;0,059;-0,034;40028756;0,0029;0;0,1512;0;1,013;229,562;0;0,16;0;0,753;5,186;1;40028779;0;0;0;0;0;0;0;0;0;-1;0,00000000;0,00000000;0,00000000;0,00000000;0,00000000;0,00000000;0,00000000;
40028870;51,6;35,9;35,8;28,2;28,1;-72,9;0,25;0;0,02;-0,24;0;0;0,0029;0;0,1512;0;52;358;29,4557;0;28;0,059;-0,034;40028825;0,0029;0;0,1512;0;1,013;229,562;0;-0,33;0;0,753;5,186;1;40028846;0;0;0;0;0;0;0;0;0;-1;0,00000000;0,00000000;0,00000000;0,00000000;0,00000000;0,00000000;0,00000000;
40028935;51,6;35,8;36;28,3;28,2;-72,5;0,26;0;0,03;-0,24;0;0;0,0029;0;0,1512;0;52;358;29,2923;0;28;0,06;-0,034;40028871;0,0029;0;0,1512;0;1,013;229,563;0;0,38;0;0,753;5,186;1;40028846;0;0;0;0;0;0;0;0;0;-1;0,00000000;0,00000000;0,00000000;0,00000000;0,00000000;0,00000000;0,00000000;
40029027;51,6;35,9;36;28,4;28,2;-72,3;0,26;0;0,02;-0,25;0;0;0,0029;0;0,1512;0;52;358;29,509;0;28;0,06;-0,033;40028936;0,0029;0;0,1512;0;1,013;229,563;0;0,08;0;0,753;5,186;1;40028959;0;0;0;0;0;0;0;0;0;-1;0,00000000;0,00000000;0,00000000;0,00000000;0,00000000;0,00000000;0,00000000;
40029094;51,6;35,9;35,9;28,2;28;-72,3;0,27;0;0,04;-0,26;0;0;0,0029;0;0,1512;0;52;358;29,4912;0;28;0,06;-0,034;40029028;0,0029;0;0,1512;0;1,013;229,563;0;0,1;0;0,753;5,186;1;40029049;0;0;0;0;0;0;0;0;0;-1;0,00000000;0,00000000;0,00000000;0,00000000;0,00000000;0,00000000;0,00000000;
40029183;51,6;35,9;36;28,3;28,2;-72,2;0,27;0;0,03;-0,26;0;0;0,0029;0;0,1512;0;52;358;29,2398;0;28;0,06;-0,033;40029095;0,0029;0;0,1512;0;1,013;229,563;0;0,18;0;0,753;5,186;1;40029116;0;0;0;0;0;0;0;0;0;-1;0,00000000;0,00000000;0,00000000;0,00000000;0,00000000;0,00000000;0,00000000;
40029230;51,6;35,9;35,8;28,2;28,2;-73,2;0,15;0;0,02;-0,14;0;0;0,0029;0;0,1512;0;52;358;29,1477;0;28;0,06;-0,033;40029207;0,0029;0;0,1512;0;1,013;229,563;0;-0,12;0;0,753;5,186;1;40029208;0;0;0;0;0;0;0;0;0;-1;0,00000000;0,00000000;0,00000000;0,00000000;0,00000000;0,00000000;0,00000000;
40029275;51,6;35,9;35,9;28,3;28,1;-73,8;0,14;0;0,03;-0,14;0;0;0,0029;0;0,1512;0;52;358;29,4701;0;28;0,06;-0,033;40029207;0,0029;0;0,1512;0;1,013;229,563;0;-0,12;0;0,753;5,186;1;40029208;0;0;0;0;0;0;0;0;0;-1;0,00000000;0,00000000;0,00000000;0,00000000;0,00000000;0,00000000;0,00000000;
40029343;51,6;35,8;35,9;28,2;28;-73;0,27;0;0,04;-0,25;0;0;0,0029;0;0,1512;0;52;358;29,0429;0;28;0,059;-0,034;40029275;0,0029;0;0,1512;0;1,013;229,563;0;0,16;0;0,753;5,186;1;40029298;0;0;0;0;0;0;0;0;0;-1;0,00000000;0,00000000;0,00000000;0,00000000;0,00000000;0,00000000;0,00000000;
40029431;51,6;35,9;36;28,3;28,1;-74,4;0,35;0;0,03;-0,35;0;0;0,0029;0;0,1512;0;52;358;29,0277;0;28;0,06;-0,034;40029343;0,0029;0;0,1512;0;1,013;229,563;0;0,11;0;0,753;5,186;1;40029363;0;0;0;0;0;0;0;0;0;-1;0,00000000;0,00000000;0,00000000;0,00000000;0,00000000;0,00000000;0,00000000;
40029498;51,6;35,9;36,1;28,5;28,3;-74,7;0,33;0;0,04;-0,32;0;0;0,0029;0;0,1512;0;52;358;29,1048;0;28;0,06;-0,034;40029431;0,0029;0;0,1512;0;1,013;229,564;0;-0,27;0;0,753;5,186;1;40029454;0;0;0;0;0;0;0;0;0;-1;0,00000000;0,00000000;0,00000000;0,00000000;0,00000000;0,00000000;0,00000000;
40029567;51,6;35,9;35,9;28,3;28,2;-75;0,34;0;0,03;-0,33;0;0;0,0029;0;0,1512;0;52;358;29,1524;0;28;0,06;-0,034;40029499;0,0029;0;0,1512;0;1,013;229,564;0;-0,07;0;0,753;5,186;1;40029522;0;0;0;0;0;0;0;0;0;-1;0,00000000;0,00000000;0,00000000;0,00000000;0,00000000;0,00000000;0,00000000;
40029641;51,6;35,9;35,9;28,3;28,1;-75,1;0,42;0;0,04;-0,41;0;0;0,0029;0;0,1512;0;52;358;29,0933;0;28;0,06;-0,035;40029570;0,0029;0;0,1512;0;1,013;229,564;0;0,31;0;0,753;5,186;1;40029588;0;0;0;0;0;0;0;0;0;-1;0,00000000;0,00000000;0,00000000;0,00000000;0,00000000;0,00000000;0,00000000;
40029678;51,6;35,9;35,9;28,4;28,2;-75;0,43;0;0,03;-0,42;0;0;0,0029;0;0,1512;0;52;358;29,044;0;28;0,059;-0,034;40029641;0,0029;0;0,1512;0;1,013;229,565;0;0,2;0;0,753;5,186;1;40029588;0;0;0;0;0;0;0;0;0;-1;0,00000000;0,00000000;0,00000000;0,00000000;0,00000000;0,00000000;0,00000000;
40029748;51,6;35,9;36;28,5;28,3;-75,7;0,4;0;0,04;-0,38;0;0;0,0029;0;0,1512;0;52;358;28,6799;0;28;0,061;-0,035;40029678;0,0029;0;0,1512;0;1,013;229,566;0;0,26;0;0,753;5,186;1;40029700;0;0;0;0;0;0;0;0;0;-1;0,00000000;0,00000000;0,00000000;0,00000000;0,00000000;0,00000000;0,00000000;
40029814;51,6;35,9;35,9;28,2;28,2;-75,6;0,5;0;0,03;-0,5;0;0;0,0029;0;0,1512;0;52;358;28,6438;0;28;0,061;-0,035;40029749;0,0029;0;0,1512;0;1,013;229,565;0;-0,03;0;0,753;5,186;1;40029770;0;0;0;0;0;0;0;0;0;-1;0,00000000;0,00000000;0,00000000;0,00000000;0,00000000;0,00000000;0,00000000;
40029882;51,6;35,9;35,9;28,2;28;-75,1;0,44;0;0,04;-0,42;0;0;0,0029;0;0,1512;0;52;358;28,483;0;28;0,061;-0,034;40029838;0,0029;0;0,1512;0;1,013;229,566;0;0,36;0;0,753;5,186;1;40029838;0;0;0;0;0;0;0;0;0;-1;0,00000000;0,00000000;0,00000000;0,00000000;0,00000000;0,00000000;0,00000000;
40029927;51,6;35,9;35,9;28,2;28,1;-74,8;0,43;0;0,03;-0,42;0;0;0,0029;0;0,1512;0;52;358;28,4296;0;28;0,061;-0,034;40029838;0,0029;0;0,1512;0;1,013;229,566;0;0,36;0;0,753;5,186;1;40029838;0;0;0;0;0;0;0;0;0;-1;0,00000000;0,00000000;0,00000000;0,00000000;0,00000000;0,00000000;0,00000000;
40029995;51,6;35,9;36;28,3;28,2;-74,5;0,39;0;0,04;-0,38;0;0;0,0029;0;0,1512;0;52;358;28,3746;0;28;0,061;-0,034;40029928;0,0029;0;0,1512;0;1,013;229,567;0;-0,23;0;0,753;5,186;1;40029950;0;0;0;0;0;0;0;0;0;-1;0,00000000;0,00000000;0,00000000;0,00000000;0,00000000;0,00000000;0,00000000;
40030109;51,6;35,9;36;28,5;28,3;-74,3;0,38;0;0,05;-0,37;0;0;0,0029;0;0,1512;0;52;358;28,2808;0;28;0,061;-0,033;40029996;0,0029;0;0,1512;0;1,013;229,567;0;-0,02;0;0,753;5,186;1;40030017;0;0;0;0;0;0;0;0;0;-1;0,00000000;0,00000000;0,00000000;0,00000000;0,00000000;0,00000000;0,00000000;
40030174;51,6;35,9;36,1;28,4;28,2;-74,4;0,33;0;0,02;-0,33;0;0;0,0029;0;0,1512;0;52;358;28,3381;0;28;0,061;-0,034;40030109;0,0029;0;0,1512;0;1,013;229,567;0;0,36;0;0,753;5,186;1;40030130;0;0;0;0;0;0;0;0;0;-1;0,00000000;0,00000000;0,00000000;0,00000000;0,00000000;0,00000000;0,00000000;
40030242;51,6;35,9;35,9;28,3;28,1;-73,8;0,35;0;0,05;-0,34;0;0;0,0029;0;0,1512;0;52;358;28,3664;0;28;0,06;-0,033;40030175;0,0029;0;0,1512;0;1,013;229,566;0;-0,1;0;0,753;5,186;1;40030199;0;0;0;0;0;0;0;0;0;-1;0,00000000;0,00000000;0,00000000;0,00000000;0,00000000;0,00000000;0,00000000;
40030330;51,6;35,9;36;28,4;28,2;-74,4;0,43;0;0,05;-0,42;0;0;0,0029;0;0,1512;0;52;358;28,2897;0;28;0,061;-0,034;40030243;0,0029;0;0,1512;0;1,013;229,566;0;0,04;0;0,753;5,186;1;40030265;0;0;0;0;0;0;0;0;0;-1;0,00000000;0,00000000;0,00000000;0,00000000;0,00000000;0,00000000;0,00000000;
40030401;51,6;35,9;35,9;28,3;28,1;-73,2;0,32;0;0,02;-0,31;0;0;0,0029;0;0,1512;0;52;358;28,4019;0;28;0,06;-0,033;40030331;0,0029;0;0,1512;0;1,013;229,567;0;0,05;0;0,753;5,186;1;40030352;0;0;0;0;0;0;0;0;0;-1;0,00000000;0,00000000;0,00000000;0,00000000;0,00000000;0,00000000;0,00000000;
40030468;51,6;35,9;36,1;28,5;28,3;-73,6;0,25;0;0,04;-0,24;0;0;0,0029;0;0,1512;0;52;358;28,405;0;28;0,061;-0,032;40030402;0,0029;0;0,1512;0;1,013;229,568;0;0,21;0;0,753;5,186;1;40030420;0;0;0;0;0;0;0;0;0;-1;0,00000000;0,00000000;0,00000000;0,00000000;0,00000000;0,00000000;0,00000000;
40030546;51,6;35,9;35,9;28,3;28,1;-73,2;0,27;0;0,04;-0,26;0;0;0,0029;0;0,1512;0;52;358;28,2716;0;28;0,06;-0,033;40030468;0,0029;0;0,1512;0;1,013;229,568;0;-0,07;0;0,753;5,186;1;40030505;0;0;0;0;0;0;0;0;0;-1;0,00000000;0,00000000;0,00000000;0,00000000;0,00000000;0,00000000;0,00000000;
40030581;51,6;35,9;35,9;28,3;28,1;-73;0,22;0;0,03;-0,22;0;0;0,0029;0;0,1512;0;52;358;28,0823;0;28;0,06;-0,033;40030547;0,0029;0;0,1512;0;1,013;229,569;0;0,66;0;0,753;5,186;1;40030505;0;0;0;0;0;0;0;0;0;-1;0,00000000;0,00000000;0,00000000;0,00000000;0,00000000;0,00000000;0,00000000;
40030628;51,6;35,9;36;28,3;28,1;-73;0,29;0;0,04;-0,28;0;0;0,0029;0;0,1512;0;52;358;28,0485;0;28;0,06;-0,033;40030606;0,0029;0;0,1512;0;1,013;229,569;0;-0,08;0;0,753;5,186;1;40030607;0;0;0;0;0;0;0;0;0;-1;0,00000000;0,00000000;0,00000000;0,00000000;0,00000000;0,00000000;0,00000000;
40030763;51,6;35,9;36;28,4;28,3;-72,7;0,25;0;0,03;-0,24;0;0;0,0029;0;0,1512;0;52;358;27,8779;0;28;0,061;-0,032;40030606;0,0029;0;0,1512;0;1,013;229,569;0;-0,08;0;0,753;5,186;1;40030607;0;0;0;0;0;0;0;0;0;-1;0,00000000;0,00000000;0,00000000;0,00000000;0,00000000;0,00000000;0,00000000;
40030832;51,6;35,9;36;28,3;28,1;-72,5;0,3;0;0,04;-0,29;0;0;0,0029;0;0,1512;0;52;358;27,9352;0;28;0,061;-0,032;40030763;0,0029;0;0,1512;0;1,013;229,569;0;0,1;0;0,753;5,186;1;40030783;0;0;0;0;0;0;0;0;0;-1;0,00000000;0,00000000;0,00000000;0,00000000;0,00000000;0,00000000;0,00000000;
40030880;51,6;35,9;36;28,3;28,2;-72,6;0,24;0;0,03;-0,24;0;0;0,0029;0;0,1512;0;52;358;27,8061;0;28;0,061;-0,032;40030832;0,0029;0;0,1512;0;1,013;229,569;0;-0,42;0;0,753;5,186;1;40030783;0;0;0;0;0;0;0;0;0;-1;0,00000000;0,00000000;0,00000000;0,00000000;0,00000000;0,00000000;0,00000000;
40030939;51,6;35,9;35,9;28,3;28,2;-72,8;0,3;0;0,03;-0,29;0;0;0,0029;0;0,1512;0;52;358;27,6382;0;28;0,061;-0,032;40030880;0,0029;0;0,1512;0;1,013;229,569;0;-0,1;0;0,753;5,186;1;40030903;0;0;0;0;0;0;0;0;0;-1;0,00000000;0,00000000;0,00000000;0,00000000;0,00000000;0,00000000;0,00000000;
40030997;51,6;35,9;35,8;28,2;28,1;-73;0,33;0;0,03;-0,33;0;0;0,0029;0;0,1512;0;52;358;27,4628;0;28;0,061;-0,033;40030939;0,0029;0;0,1512;0;1,013;229,569;0;0,13;0;0,753;5,186;1;40030963;0;0;0;0;0;0;0;0;0;-1;0,00000000;0,00000000;0,00000000;0,00000000;0,00000000;0,00000000;0,00000000;
40031042;51,6;35,9;35,8;28,2;28,2;-72,8;0,48;0;0,05;-0,48;0;0;0,0029;0;0,1512;0;52;358;27,4527;0;28;0,061;-0,032;40030997;0,0029;0;0,1512;0;1,013;229,57;0;0,37;0;0,753;5,186;1;40030963;0;0;0;0;0;0;0;0;0;-1;0,00000000;0,00000000;0,00000000;0,00000000;0,00000000;0,00000000;0,00000000;
40031087;51,6;35,9;35,9;28,2;28,1;-72,7;0,23;0;0,04;-0,21;0;0;0,0029;0;0,1512;0;52;358;27,078;0;28;0,061;-0,033;40031054;0,0029;0;0,1512;0;1,013;229,571;0;0,33;0;0,753;5,186;1;40031055;0;0;0;0;0;0;0;0;0;-1;0,00000000;0,00000000;0,00000000;0,00000000;0,00000000;0,00000000;0,00000000;
40031134;51,6;36;35,9;28,2;28;-73,7;0,15;0;0,02;-0,15;0;0;0,0029;0;0,1512;0;52;358;27,3373;0;28;0,061;-0,03;40031054;0,0029;0;0,1512;0;1,013;229,571;0;0,33;0;0,753;5,186;1;40031055;0;0;0;0;0;0;0;0;0;-1;0,00000000;0,00000000;0,00000000;0,00000000;0,00000000;0,00000000;0,00000000;
40031170;51,6;35,9;35,8;28,2;28;-74,3;0,13;0;0,02;-0,13;0;0;0,0029;0;0,1512;0;52;358;27,1652;0;28;0,06;-0,031;40031134;0,0029;0;0,1512;0;1,013;229,572;0;0,13;0;0,753;5,186;1;40031145;0;0;0;0;0;0;0;0;0;-1;0,00000000;0,00000000;0,00000000;0,00000000;0,00000000;0,00000000;0,00000000;
40031215;51,6;35,9;35,8;28,2;28,1;-73,8;0,34;0;0,02;-0,33;0;0;0,0029;0;0,1512;0;52;358;27,1948;0;28;0,061;-0,031;40031191;0,0029;0;0,1512;0;1,013;229,573;0;0,07;0;0,753;5,186;1;40031145;0;0;0;0;0;0;0;0;0;-1;0,00000000;0,00000000;0,00000000;0,00000000;0,00000000;0,00000000;0,00000000;
40031254;51,6;35,9;35,8;28,2;28,1;-73,2;0,3;0;0,03;-0,29;0;0;0,0029;0;0,1512;0;52;358;27,1573;0;28;0,061;-0,031;40031191;0,0029;0;0,1512;0;1,013;229,573;0;0,07;0;0,753;5,186;1;40031215;0;0;0;0;0;0;0;0;0;-1;0,00000000;0,00000000;0,00000000;0,00000000;0,00000000;0,00000000;0,00000000;
40031330;51,6;35,9;35,9;28,2;28,1;-72,7;0,27;0;0,04;-0,26;0;0;0,0029;0;0,1512;0;52;358;26,9395;0;28;0,061;-0,032;40031255;0,0029;0;0,1512;0;1,013;229,573;0;0,39;0;0,753;5,186;1;40031276;0;0;0;0;0;0;0;0;0;-1;0,00000000;0,00000000;0,00000000;0,00000000;0,00000000;0,00000000;0,00000000;
40031372;51,6;35,9;35,9;28,2;28;-72,7;0,33;0;0,04;-0,32;0;0;0,0029;0;0,1512;0;52;358;27,0287;0;28;0,062;-0,031;40031330;0,0029;0;0,1512;0;1,013;229,573;0;-0,37;0;0,753;5,186;1;40031356;0;0;0;0;0;0;0;0;0;-1;0,00000000;0,00000000;0,00000000;0,00000000;0,00000000;0,00000000;0,00000000;
40031415;51,6;35,9;36;28,3;28,1;-72,7;0,24;0;0,01;-0,24;0;0;0,0029;0;0,1512;0;52;358;27,158;0;28;0,062;-0,031;40031373;0,0029;0;0,1512;0;1,013;229,574;0,01;-0,07;0;0,753;5,186;1;40031356;0;0;0;0;0;0;0;0;0;-1;0,00000000;0,00000000;0,00000000;0,00000000;0,00000000;0,00000000;0,00000000;
40031490;51,6;35,9;36;28,3;28,2;-72,4;0,42;0;0,05;-0,41;0;0;0,0029;0;0,1512;0;52;358;27,1769;0;28;0,062;-0,032;40031415;0,0029;0;0,1512;0;1,013;229,574;0;0,08;0;0,753;5,186;1;40031438;0;0;0;0;0;0;0;0;0;-1;0,00000000;0,00000000;0,00000000;0,00000000;0,00000000;0,00000000;0,00000000;
40031551;51,6;35,9;36,1;28,4;28,2;-72,4;0,44;0;0,05;-0,43;0;0;0,0029;0;0,1512;0;52;358;27,0923;0;28;0,061;-0,032;40031492;0,0029;0;0,1512;0;1,013;229,574;0;0,83;0;0,753;5,186;1;40031503;0;0;0;0;0;0;0;0;0;-1;0,00000000;0,00000000;0,00000000;0,00000000;0,00000000;0,00000000;0,00000000;
40031615;51,6;35,9;35,9;28,3;28,1;-72,6;0,44;0;0,04;-0,43;0;0;0,0029;0;0,1512;0;52;358;27,0647;0;28;0,062;-0,032;40031551;0,0029;0;0,1512;0;1,013;229,574;0;0,14;0;0,753;5,186;1;40031576;0;0;0;0;0;0;0;0;0;-1;0,00000000;0,00000000;0,00000000;0,00000000;0,00000000;0,00000000;0,00000000;
40031681;51,6;35,9;35,9;28,3;28,1;-72,3;0,44;0;0,05;-0,43;0;0;0,0029;0;0,1512;0;52;358;27,1958;0;28;0,062;-0,032;40031615;0,0029;0;0,1512;0;1,013;229,574;0;0,19;0;0,753;5,186;1;40031643;0;0;0;0;0;0;0;0;0;-1;0,00000000;0,00000000;0,00000000;0,00000000;0,00000000;0,00000000;0,00000000;
40031751;51,6;35,9;36;28,3;28,1;-72,4;0,38;0;0,04;-0,38;0;0;0,0029;0;0,1512;0;52;358;26,9603;0;28;0,062;-0,031;40031681;0,0029;0;0,1512;0;1,013;229,574;0;0,04;0;0,753;5,186;1;40031702;0;0;0;0;0;0;0;0;0;-1;0,00000000;0,00000000;0,00000000;0,00000000;0,00000000;0,00000000;0,00000000;
40031846;51,6;35,9;36;28,3;28,2;-72,4;0,31;0;0,03;-0,31;0;0;0,0029;0;0,1512;0;52;358;27,0233;0;28;0,061;-0,032;40031752;0,0029;0;0,1512;0;1,013;229,574;0;-0,33;0;0,753;5,186;1;40031791;0;0;0;0;0;0;0;0;0;-1;0,00000000;0,00000000;0,00000000;0,00000000;0,00000000;0,00000000;0,00000000;
40031921;51,6;35,9;36;28,3;28,1;-72,5;0,33;0;0,03;-0,33;0;0;0,0029;0;0,1512;0;52;358;27,068;0;28;0,061;-0,032;40031846;0,0029;0;0,1512;0;1,013;229,574;0;-0,15;0;0,753;5,186;1;40031861;0;0;0;0;0;0;0;0;0;-1;0,00000000;0,00000000;0,00000000;0,00000000;0,00000000;0,00000000;0,00000000;
40031979;51,6;35,9;36;28,3;28,1;-72,6;0,31;0;0,03;-0,3;0;0;0,0029;0;0,1512;0;52;358;26,9197;0;28;0,061;-0,032;40031921;0,0029;0;0,1512;0;1,013;229,573;0;-0,09;0;0,753;5,186;1;40031932;0;0;0;0;0;0;0;0;0;-1;0,00000000;0,00000000;0,00000000;0,00000000;0,00000000;0,00000000;0,00000000;
40032043;51,6;35,9;36;28,3;28,1;-72,7;0,47;0;0,05;-0,47;0;0;0,0029;0;0,1512;0;52;358;27,1795;0;28;0,062;-0,032;40031979;0,0029;0;0,1512;0;1,013;229,573;0;0,3;0;0,753;5,186;1;40032008;0;0;0;0;0;0;0;0;0;-1;0,00000000;0,00000000;0,00000000;0,00000000;0,00000000;0,00000000;0,00000000;
40032112;51,6;35,9;35,9;28,3;28,1;-73,2;0,43;0;0,06;-0,42;0;-0,003;0,0029;0;0,1512;0;52;358;27,3351;0;28;0,062;-0,031;40032043;0,0029;0;0,1512;0;1,013;229,573;0;0,25;0;0,753;5,186;1;40032071;0;0;0;0;0;0;0;0;0;-1;0,00000000;0,00000000;0,00000000;0,00000000;0,00000000;0,00000000;0,00000000;
40032188;51,1;35,9;36;28,3;28,1;-73,6;108,16;5,04;-8,02;110,59;30;0,069;0,003;0;0,1558;0;52;358;44,9939;0;28;0,086;0,458;40032113;0,0029;0;0,1512;0;1,013;229,573;0;-0,3;0;0,753;5,186;1;40032136;0;0;0;0;0;0;0;0;0;-1;0,00000000;0,00000000;0,00000000;0,00000000;0,00000000;0,00000000;0,00000000;
40032248;51,1;35,9;35,9;28,2;28;-74;296,52;16,25;3,4;296,14;247;0,061;0,0033;0;0,1699;0;54;360;155,542;0;28;-0,021;1,119;40032189;0,003;0;0,1558;0;1,013;229,563;16,61;298,57;0,042;0,753;5,186;1;40032203;0;0;0;0;0;0;0;0;0;-1;0,00000000;0,00000000;0,00000000;0,00000000;0,00000000;0,00000000;0,00000000;
40032358;51,1;35,9;35,9;28,2;28;-74,6;300,17;16,58;0,81;299,7;769;0,083;0,0038;0;0,1978;0;64;370;26,3224;0;28;-0,259;1,236;40032248;0,0033;0;0,1699;0;1,013;229,519;14,05;293,73;0,359;0,782;5,215;1;40032290;0;0;0;0;0;0;0;0;0;-1;0,00000000;0,00000000;0,00000000;0,00000000;0,00000000;0,00000000;0,00000000;
40032426;50,9;35,9;35,9;28,3;28,1;-75;299,41;16,72;-4,13;299,6;68;0,069;0,0041;0;0,212;0;64;370;52,0576;0;28;0,011;1,064;40032359;0,0038;0;0,1978;0;1,013;229,44;16,45;270,32;1,101;0,927;5,359;1;40032388;0;0;0;0;0;0;0;0;0;-1;0,00000000;0,00000000;0,00000000;0,00000000;0,00000000;0,00000000;0,00000000;
40032468;50,8;35,9;36;28,3;28,1;-74,9;300,11;17,12;2,51;299,9;239;0,069;0,0043;0;0,224;0;66;372;124,19;0;28;0,061;1,133;40032427;0,0041;0;0,212;0;1,013;229,394;16,77;300,79;0,099;0,927;5,359;1;40032388;0;0;0;0;0;0;0;0;0;-1;0,00000000;0,00000000;0,00000000;0,00000000;0,00000000;0,00000000;0,00000000;
40032555;50,8;36;36;28,4;28,2;-76,1;300,3;16,38;1,24;299,88;424;0,077;0,0047;0;0,2403;0;69;375;316,25;0;28;-0,136;1,145;40032468;0,0043;0;0,224;0;1,012;229,361;16,69;306,48;0,345;0,956;5,388;1;40032496;0;0;0;0;0;0;0;0;0;-1;0,00000000;0,00000000;0,00000000;0,00000000;0,00000000;0,00000000;0,00000000;
40032603;50,9;36;36,1;28,6;28,3;-77;301,97;17,06;0,93;301,71;776;0,065;0,005;0;0,2551;0;75;381;351,035;0;28;-0,46;1,328;40032555;0,0047;0;0,2403;0;1,012;229,315;17,36;291,02;0,619;0,999;5,432;1;40032496;0;0;0;0;0;0;0;0;0;-1;0,00000000;0,00000000;0,00000000;0,00000000;0,00000000;0,00000000;0,00000000;
40032675;50,8;36,1;36,1;28,7;28,4;-76,8;299,56;16,56;-4,81;299,38;-7;0,068;0,0053;0;0,2712;0;76;382;53,332;0;28;0,031;1,083;40032620;0,005;0;0,2551;0;1,012;229,266;14,9;295,03;1,128;1,086;5,519;1;40032629;0;0;0;0;0;0;0;0;0;-1;0,00000000;0,00000000;0,00000000;0,00000000;0,00000000;0,00000000;0,00000000;
40032785;50,8;36,1;36,2;28,8;28,5;-77,5;299,97;16,53;2,06;299,73;309;0,071;0,0057;0;0,2921;0;79;385;219,866;0;28;-0,06;1,099;40032675;0,0053;0;0,2712;0;1,012;229,218;16,2;299,56;-0,011;1,1;5,533;1;40032727;0;0;0;0;0;0;0;0;0;-1;0,00000000;0,00000000;0,00000000;0,00000000;0,00000000;0,00000000;0,00000000;
40032831;50,9;36,2;36,2;29;28,6;-77;302,24;18,2;3,88;302,06;683;0,065;0,006;0;0,3102;0;85;391;210,623;0;28;-0,336;1,408;40032787;0,0057;0;0,2921;0;1,011;229,157;17,23;298,62;0,453;1,144;5,577;1;40032787;0;0;0;0;0;0;0;0;0;-1;0,00000000;0,00000000;0,00000000;0,00000000;0,00000000;0,00000000;0,00000000;
40032887;51,4;36,2;36,1;29;28,6;-76,5;37,41;2,49;-22,36;79,33;56;0;0,0061;0;0,3124;0;85;393;231,49;0;28;-0,051;0,199;40032832;0,006;0;0,3102;0;1,011;229,105;13,58;303,57;0,993;1,231;5,664;1;40032869;0;0;0;0;0;0;0;0;0;-1;0,00000000;0,00000000;0,00000000;0,00000000;0,00000000;0,00000000;0,00000000;
40032998;51,4;36,2;36,3;29,1;28,7;-75,4;-1,81;0;0,53;-1,71;286;0;0,0061;0;0,3124;0,0001;88;396;45,3092;0;28;0,035;0,379;40032887;0,0061;0;0,3124;0;1,011;229,098;0;-1,1;0,086;1,231;5,693;1;40032869;0;0;0;0;0;0;0;0;0;-1;0,00000000;0,00000000;0,00000000;0,00000000;0,00000000;0,00000000;0,00000000;
40033111;51,5;36,3;36,3;29,5;29,1;-74,1;-0,83;0;-0,16;-0,85;76;0;0,0061;0;0,3124;0,0001;88;402;45,5836;0;28;0,057;0,018;40033000;0,0061;0;0,3124;0,0001;1,011;229,098;0;-1,64;0,414;1,274;5,736;1;40033011;0;0;0;0;0;0;0;0;0;-1;0,00000000;0,00000000;0,00000000;0,00000000;0,00000000;0,00000000;0,00000000;
40033164;51,4;36,4;36,6;29,6;29,3;-74,2;-0,97;0;-0,2;-0,98;0;0;0,0061;0;0,3124;0,0001;88;402;55,6808;0;28;0,048;0,039;40033112;0,0061;0;0,3124;0,0001;1,011;229,1;0;-1,03;0,109;1,274;5,823;1;40033112;0;0;0;0;0;0;0;0;0;-1;0,00000000;0,00000000;0,00000000;0,00000000;0,00000000;0,00000000;0,00000000;
40033222;51,1;36,4;36,5;29,7;29,4;-73,9;31,9;1,53;-0,38;33,67;-31;0,068;0,0061;0;0,3131;0,0001;88;402;38,6791;0;28;0,001;0,112;40033165;0,0061;0;0,3124;0,0001;1,011;229,101;0;-0,48;0;1,274;5,823;1;40033173;0;0;0;0;0;0;0;0;0;-1;0,00000000;0,00000000;0,00000000;0,00000000;0,00000000;0,00000000;0,00000000;
40033268;50,8;36,4;36,5;29,6;29,3;-74,3;298,69;16,71;-0,73;299,03;11;0,07;0,0063;0;0,3223;0,0001;88;402;43,7286;0;28;-0,004;1,041;40033223;0,0061;0;0,3131;0,0001;1,011;229,103;15,45;279,7;-0,047;1,274;5,823;1;40033173;0;0;0;0;0;0;0;0;0;-1;0,00000000;0,00000000;0,00000000;0,00000000;0,00000000;0,00000000;0,00000000;
40033343;50,8;36,4;36,5;29,8;29,5;-75,5;300,75;17,21;3,3;300,46;234;0,069;0,0066;0;0,3393;0,0001;90;404;138,834;0;28;0,029;1,143;40033270;0,0063;0;0,3247;0,0001;1,011;229,075;16,73;299,98;0,016;1,274;5,823;1;40033286;0;0;0;0;0;0;0;0;0;-1;0,00000000;0,00000000;0,00000000;0,00000000;0,00000000;0,00000000;0,00000000;
40033396;50,7;36,5;36,6;29,9;29,6;-76,8;298,51;16,67;0,28;298,02;522;0,091;0,0069;0;0,3556;0,0001;94;408;33,1674;0;28;-0,153;1,195;40033344;0,0066;0;0,3393;0,0001;1,011;229,03;16,24;305,99;0,339;1,303;5,852;1;40033286;0;0;0;0;0;0;0;0;0;-1;0,00000000;0,00000000;0,00000000;0,00000000;0,00000000;0,00000000;0,00000000;
40033470;50,8;36,5;36,5;29,9;29,6;-78;302,69;16,57;-2,01;302,43;312;0,067;0,0073;0;0,3722;0,0001;100;414;34,8938;0;28;-0,463;1,257;40033397;0,0069;0;0,3556;0,0001;1,011;228,986;20,71;285,51;0,765;1,361;5,91;1;40033432;0;0;0;0;0;0;0;0;0;-1;0,00000000;0,00000000;0,00000000;0,00000000;0,00000000;0,00000000;0,00000000;
40033511;50,8;36,5;36,6;29,9;29,7;-78;299,97;16,85;-3,68;299,94;-1;0,067;0,0074;0;0,3817;0,0001;100;414;47,2902;0;28;0,074;1,057;40033471;0,0073;0;0,3722;0,0001;1,011;228,941;16,24;296,6;0,361;1,448;5,997;1;40033432;0;0;0;0;0;0;0;0;0;-1;0,00000000;0,00000000;0,00000000;0,00000000;0,00000000;0,00000000;0,00000000;
40033581;50,8;36,6;36,7;30,2;29,8;-78,2;300,88;16,89;3,04;300,48;246;0,065;0,0078;0;0,3984;0,0001;102;416;147,74;0;28;-0,055;1,116;40033511;0,0074;0;0,3817;0,0001;1,01;228,912;16,12;301,35;-0,001;1,448;5,997;1;40033533;0;0;0;0;0;0;0;0;0;-1;0,00000000;0,00000000;0,00000000;0,00000000;0,00000000;0,00000000;0,00000000;
40033648;50,6;36,6;36,6;30,2;29,9;-78,4;298,08;17,45;2,53;297,76;518;0,091;0,0081;0;0,4155;0,0001;106;420;40,0487;0;28;-0,146;1,267;40033582;0,0078;0;0,3984;0,0001;1,01;228,867;15,53;300,59;0,358;1,477;6,026;1;40033593;0;0;0;0;0;0;0;0;0;-1;0,00000000;0,00000000;0,00000000;0,00000000;0,00000000;0,00000000;0,00000000;
40033715;50,6;36,7;36,7;30,4;30,1;-78,9;301,43;16,48;-1,11;301,25;733;0,076;0,0084;0;0,4292;0,0001;113;427;86,1815;0;28;-0,459;1,249;40033649;0,0081;0;0,4155;0,0001;1,01;228,821;21,2;302,7;0,755;1,535;6,084;1;40033675;0;0;0;0;0;0;0;0;0;-1;0,00000000;0,00000000;0,00000000;0,00000000;0,00000000;0,00000000;0,00000000;
40033821;50,7;36,8;36,8;30,7;30,3;-78,8;301,48;17,29;-0,83;301,31;237;0,059;0,009;0;0,4587;0,0001;114;428;179,748;0;28;-0,044;1,112;40033715;0,0084;0;0,4292;0,0001;1,01;228,778;18,28;308,43;1,058;1,636;6,185;1;40033767;0;0;0;0;0;0;0;0;0;-1;0,00000000;0,00000000;0,00000000;0,00000000;0,00000000;0,00000000;0,00000000;
40033944;50,9;36,9;36,8;30,8;30,4;-78,5;301,22;16,98;0,81;300,82;742;0,056;0,0095;0;0,4852;0,0001;123;437;328,746;0;28;-0,252;1,252;40033823;0,009;0;0,4587;0,0001;1,009;228,704;14,27;307,17;0,345;1,651;6,2;1;40033845;0;0;0;0;0;0;0;0;0;-1;0,00000000;0,00000000;0,00000000;0,00000000;0,00000000;0,00000000;0,00000000;
40034008;50,6;36,9;37;31;30,6;-78;297,93;16,49;-2,8;297,66;10;0,07;0,0098;0;0,5012;0,0001;125;439;81,6633;0;28;-0,103;1,015;40033945;0,0095;0;0,4852;0,0001;1,009;228,629;12,56;293,14;1,081;1,781;6,33;1;40033963;0;0;0;0;0;0;0;0;0;-1;0,00000000;0,00000000;0,00000000;0,00000000;0,00000000;0,00000000;0,00000000;
40034045;50,6;36,9;37;31,1;30,7;-77,5;298,11;17,2;3,06;297,7;284;0,088;0,01;0;0,5108;0,0001;126;440;147,489;0;28;-0,035;1,054;40034009;0,0098;0;0,5012;0,0001;1,009;228,589;17,07;301,94;0,015;1,81;6,359;1;40033963;0;0;0;0;0;0;0;0;0;-1;0,00000000;0,00000000;0,00000000;0,00000000;0,00000000;0,00000000;0,00000000;
40034113;50,6;37;37,1;31,2;30,8;-76,7;302,17;16,84;-1,81;302,03;364;0,069;0,0103;0;0,5274;0,0001;128;442;295,607;0;28;-0,13;1,174;40034045;0,01;0;0,5108;0,0001;1,009;228,56;20,63;296,36;0,406;1,825;6,373;1;40034071;0;0;0;0;0;0;0;0;0;-1;0,00000000;0,00000000;0,00000000;0,00000000;0,00000000;0,00000000;0,00000000;
40034220;51,3;37,2;37,1;31,4;31,1;-76,8;66,13;3,58;2,18;64,86;151;0;0,0104;0;0,533;0,0001;130;446;28,9651;0;28;0,022;0,445;40034114;0,0103;0;0,5274;0,0001;1,009;228,518;16,77;301,91;0,533;1,854;6,402;1;40034154;0;0;0;0;0;0;0;0;0;-1;0,00000000;0,00000000;0,00000000;0,00000000;0,00000000;0,00000000;0,00000000;
40034277;51,3;37,3;37,3;31,6;31,2;-76,4;-1,74;0;0,37;-1,66;556;0;0,0104;0;0,533;0,0001;135;451;347,625;0;28;-0,063;0,361;40034221;0,0104;0;0,533;0,0001;1,009;228,507;-0,01;-2,32;0,223;1,883;6,46;1;40034237;0;0;0;0;0;0;0;0;0;-1;0,00000000;0,00000000;0,00000000;0,00000000;0,00000000;0,00000000;0,00000000;
40034356;51,3;37,3;37,3;31,8;31,5;-76;-1,87;0;-0,33;-1,81;546;0;0,0104;0;0,533;0,0001;139;455;196,344;0;28;-0,003;0,297;40034277;0,0104;0;0,533;0,0001;1,009;228,513;0;-1,48;0,804;1,955;6,533;1;40034319;0;0;0;0;0;0;0;0;0;-1;0,00000000;0,00000000;0,00000000;0,00000000;0,00000000;0,00000000;0,00000000;
40034405;51,3;37,4;37,3;31,9;31,6;-76,2;3,6;0,16;0,87;4,1;483;0,054;0,0104;0;0,533;0,0001;142;458;29,6774;0;28;0,144;0,333;40034357;0,0104;0;0,533;0,0001;1,009;228,52;0;-1,12;0,798;2,013;6,591;1;40034319;0;0;0;0;0;0;0;0;0;-1;0,00000000;0,00000000;0,00000000;0,00000000;0,00000000;0,00000000;0,00000000;
40034476;49,8;37,4;37,4;32,1;31,8;-76,8;272,3;24,84;4,73;273,62;1690;0,159;0,0109;0;0,5544;0,0001;156;472;153,9;0;28;-0,326;2,266;40034406;0,0104;0;0,533;0,0001;1,009;228,527;4,23;75,42;0,702;2,057;6,634;1;40034431;0;0;0;0;0;0;0;0;0;-1;0,00000000;0,00000000;0,00000000;0,00000000;0,00000000;0,00000000;0,00000000;
40034546;48,7;37,5;37,5;32;31,8;-78,9;290,13;49,5;5,45;289,2;4720;0,262;0,0118;0;0,6007;0,0001;197;513;114,189;0;28;-1,526;5,58;40034477;0,0109;0;0,5544;0,0001;1,008;228,469;37,82;302,95;2,488;2,259;6,837;1;40034524;0;0;0;0;0;0;0;0;0;-1;0,00000000;0,00000000;0,00000000;0,00000000;0,00000000;0,00000000;0,00000000;
40034622;47,7;37,6;37,7;32,4;32,1;-81,7;289,19;74,35;5,05;289,08;8447;0,369;0,013;0;0,6587;0,0001;266;582;286,588;0;28;-2,976;8,129;40034546;0,0118;0;0,6007;0,0001;1,008;228,336;62,49;287,93;6,883;2,868;7,445;1;40034524;0;0;0;0;0;0;0;0;0;-1;0,00000000;0,00000000;0,00000000;0,00000000;0,00000000;0,00000000;0,00000000;
40034693;46,6;37,5;37,7;32,4;32,2;-80,3;289,88;100,2;5,96;289,74;12418;0,479;0,0149;0;0,7477;0,0001;363;679;341,87;0;28;-4,289;10,557;40034622;0,0132;0;0,67;0,0001;1,007;228,132;91,77;291,84;12,308;3,867;8,445;1;40034628;0;0;0;0;0;0;0;0;0;-1;0,00000000;0,00000000;0,00000000;0,00000000;0,00000000;0,00000000;0,00000000;
40034753;46;37,6;37,6;32,4;32,1;-79,6;282,27;123,07;4,44;281,92;16502;0,577;0,0173;0;0,8571;0,0001;488;804;275,725;0;28;-5,628;12,893;40034693;0,0149;0;0,7477;0,0001;1,006;227,853;109,69;283,11;18,069;5,287;9,865;1;40034715;0;0;0;0;0;0;0;0;0;-1;0,00000000;0,00000000;0,00000000;0,00000000;0,00000000;0,00000000;0,00000000;
40034792;46,3;37,6;37,6;32,5;32,2;-79,2;239,55;118,22;1,37;238,94;19045;0,611;0,0186;0;0,9185;0,0001;585;901;336,544;0;28;-6,066;14,519;40034754;0,0173;0;0,8571;0,0001;1,004;227,515;126,17;252,94;23,959;7,083;11,661;1;40034715;0;0;0;0;0;0;0;0;0;-1;0,00000000;0,00000000;0,00000000;0,00000000;0,00000000;0,00000000;0,00000000;
40034864;48,2;37,7;37,8;32,7;32,4;-78,3;161,09;82,08;-25,14;157,92;22182;0,596;0,0203;0;0,9997;0,0001;746;1062;259,066;0;28;-5,453;15,281;40034793;0,0186;0;0,9185;0,0001;1,003;227,294;106,98;211,69;27,644;8,503;13,081;1;40034825;0;0;0;0;0;0;0;0;0;-1;0,00000000;0,00000000;0,00000000;0,00000000;0,00000000;0,00000000;0,00000000;
40034916;48,7;37,7;37,8;32,8;32,5;-78,2;96,88;49,99;-9,54;95,71;23602;0,607;0,021;0;1,0344;0,0001;858;1174;163,868;0;28;-4,655;16,194;40034864;0,0203;0;0,9997;0,0001;1,002;227,05;60,2;113,4;32,164;10,821;15,398;1;40034825;0;0;0;0;0;0;0;0;0;-1;0,00000000;0,00000000;0,00000000;0,00000000;0,00000000;0,00000000;0,00000000;
40034978;48,6;37,8;37,8;32,9;32,6;-78,5;86,61;45,9;6,77;85,88;25077;0,647;0,0218;0;1,0711;0,0001;1033;1349;189,53;0;28;-4,669;16,937;40034917;0,021;0;1,0344;0,0001;1,002;226,952;45,08;84,29;34,224;12,458;17,035;1;40034927;0;0;0;0;0;0;0;0;0;-1;0,00000000;0,00000000;0,00000000;0,00000000;0,00000000;0,00000000;0,00000000;
40035101;47,9;37,8;38,1;33,2;32,9;-78,9;112,47;63,53;15,88;110,75;26821;0,689;0,0233;0;1,1456;0,0001;1277;1593;109,776;0;28;-5,593;17,919;40034978;0,0218;0;1,0711;0,0001;1,001;226,822;45,99;87,46;36,347;14,978;19,556;1;40034998;0;0;0;0;0;0;0;0;0;-1;0,00000000;0,00000000;0,00000000;0,00000000;0,00000000;0,00000000;0,00000000;
40035177;48,1;38;38;33,3;33;-81,9;108,46;66,35;3,53;107,97;29021;0,736;0,0255;0;1,2514;0,0001;1607;1923;62,2026;0;28;-6,234;18,836;40035102;0,0235;0;1,1543;0,0001;1;226,59;60,95;106,96;38,88;18,542;23,12;1;40035138;0;0;0;0;0;0;0;0;0;-1;0,00000000;0,00000000;0,00000000;0,00000000;0,00000000;0,00000000;0,00000000;
40035252;48,7;38;38;33,4;33,1;-81,3;85,81;53,84;-5,93;84,66;30134;0,725;0,0265;0;1,2961;0,0001;1813;2129;231,674;0;28;-6,208;19,489;40035177;0,0255;0;1,2514;0,0001;0,998;226,186;63,04;92,12;42,058;23,293;27,871;1;40035196;0;0;0;0;0;0;0;0;0;-1;0,00000000;0,00000000;0,00000000;0,00000000;0,00000000;0,00000000;0,00000000;
40035318;48,8;38;38,1;33,4;33;-80,6;64,61;40,77;-0,04;63,76;30946;0,764;0,0273;0;1,3351;0,0001;2025;2341;324,572;0;28;-5,904;20,021;40035253;0,0266;0;1,302;0,0001;0,997;225,761;43,83;70,08;43,675;26,307;30,884;1;40035270;0;0;0;0;0;0;0;0;0;-1;0,00000000;0,00000000;0,00000000;0,00000000;0,00000000;0,00000000;0,00000000;
40035376;48,9;38,1;38,2;33,5;33,2;-80,2;60,65;38,96;2,31;60,15;31562;0,769;0,028;0;1,3723;0,0001;2240;2556;280,562;0;28;-5,998;20,361;40035318;0,0273;0;1,3351;0,0001;0,995;225,417;38,61;64,27;44,844;29,378;33,955;1;40035325;0;0;0;0;0;0;0;0;0;-1;0,00000000;0,00000000;0,00000000;0,00000000;0,00000000;0,00000000;0,00000000;
40035453;49;38,1;38,2;33,6;33,4;-80,3;60,63;39,74;1,66;60,37;32105;0,769;0,0288;0;1,4101;0,0001;2459;2775;92,1892;0;28;-6,185;20,641;40035376;0,028;0;1,3723;0,0001;0,993;225,079;37,82;58,16;45,736;32,492;37,07;1;40035413;0;0;0;0;0;0;0;0;0;-1;0,00000000;0,00000000;0,00000000;0,00000000;0,00000000;0,00000000;0,00000000;
40035500;49,1;38,1;38,2;33,5;33,3;-80,8;53,77;35,42;0,05;53,48;32432;0,775;0,0292;0;1,4296;0,0001;2606;2922;269,925;0;28;-6,138;20,828;40035454;0,0288;0;1,4101;0,0001;0,992;224,716;34,22;53,45;46,516;35,65;40,228;1;40035413;0;0;0;0;0;0;0;0;0;-1;0,00000000;0,00000000;0,00000000;0,00000000;0,00000000;0,00000000;0,00000000;
40035556;49,2;38,1;38,4;33,7;33,4;-80,6;49,82;33,02;0;49,63;32824;0,776;0,0299;0;1,4612;0,0001;2829;3145;326,282;0;28;-6,131;20,977;40035510;0,0294;0;1,4391;0,0001;0,99;224,401;30,92;44,15;47,166;38,808;43,386;1;40035511;0;0;0;0;0;0;0;0;0;-1;0,00000000;0,00000000;0,00000000;0,00000000;0,00000000;0,00000000;0,00000000;
40035632;49,3;38,2;38,3;33,8;33,5;-81;45,45;30,26;0,08;45,28;33128;0,781;0,0304;0;1,4902;0,0001;3053;3369;115,848;0;28;-6,12;21,125;40035557;0,0299;0;1,4612;0,0001;0,99;224,203;31,83;46,76;47,555;41,025;45,602;1;40035573;0;0;0;0;0;0;0;0;0;-1;0,00000000;0,00000000;0,00000000;0,00000000;0,00000000;0,00000000;0,00000000;
40035703;49,4;38,2;38,3;33,8;33,5;-80,9;41,94;28,01;-0,02;41,77;33369;0,779;0,0309;0;1,5135;0,0001;3280;3596;3,03168;0;28;-6,099;21,245;40035632;0,0304;0;1,4902;0,0001;0,988;223,933;29,03;43,41;47,994;44,284;48,862;1;40035647;0;0;0;0;0;0;0;0;0;-1;0,00000000;0,00000000;0,00000000;0,00000000;0,00000000;0,00000000;0,00000000;
40035756;49,3;38,3;38,3;33,9;33,6;-81,2;39,71;26,55;0,19;39,51;33545;0,782;0,0314;0;1,539;0,0001;3506;3822;298,055;0;28;-6,091;21,334;40035704;0,031;0;1,5172;0,0001;0,987;223,694;35,07;45,46;48,339;47,543;52,121;1;40035722;0;0;0;0;0;0;0;0;0;-1;0,00000000;0,00000000;0,00000000;0,00000000;0,00000000;0,00000000;0,00000000;
40035903;49,5;38,3;38,5;33,9;33,7;-81,7;37,01;24,78;-0,36;36,79;33739;0,784;0,0321;0;1,57;0,0001;3810;4126;168,463;0;28;-6,067;21,414;40035786;0,0316;0;1,5463;0,0001;0,986;223,412;23,68;32,95;48,693;51,889;56,467;1;40035786;0;0;0;0;0;0;0;0;0;-1;0,00000000;0,00000000;0,00000000;0,00000000;0,00000000;0,00000000;0,00000000;
40035994;49,4;38,3;38,5;33,9;33,7;-81,9;35,58;23,83;0,26;35,33;33867;0,784;0,0328;0;1,6058;0,0001;4192;4508;35,2341;0;28;-6,06;21,481;40035904;0,0321;0;1,57;0,0001;0,985;223,217;23,32;35,56;48,876;55,236;59,813;1;40035926;0;0;0;0;0;0;0;0;0;-1;0,00000000;0,00000000;0,00000000;0,00000000;0,00000000;0,00000000;0,00000000;
40036056;49,5;38,3;38,7;34;33,7;-82,6;33,64;22,55;-0,05;33,39;33956;0,786;0,0333;0;1,6339;0,0001;4497;4813;1,13345;0;28;-6,042;21,534;40035994;0,0328;0;1,6058;0,0001;0,984;222,929;24,64;37,82;49,06;60,755;65,332;1;40036006;0;0;0;0;0;0;0;0;0;-1;0,00000000;0,00000000;0,00000000;0,00000000;0,00000000;0,00000000;0,00000000;
40036129;49,5;38,4;38,6;33,9;33,7;-83,8;33,12;22,23;-0,08;32,9;34000;0,788;0,0338;0;1,6555;0,0001;4727;5043;110,675;0;28;-6,047;21,555;40036056;0,0334;0;1,6372;0,0001;0,983;222,728;25,37;36,5;49,186;65,188;69,765;1;40036075;0;0;0;0;0;0;0;0;0;-1;0,00000000;0,00000000;0,00000000;0,00000000;0,00000000;0,00000000;0,00000000;
40036189;49,5;38,4;38,4;33,9;33,7;-84;32,64;21,91;-0,05;32,41;34032;0,787;0,0342;0;1,6767;0,0001;4957;5273;232,041;0;28;-6,04;21,57;40036129;0,0338;0;1,6555;0,0001;0,982;222,582;21,87;34,31;49,251;68,534;73,112;1;40036138;0;0;0;0;0;0;0;0;0;-1;0,00000000;0,00000000;0,00000000;0,00000000;0,00000000;0,00000000;0,00000000;
40036256;49,5;38,4;38,5;34;33,8;-84,8;32,34;21,66;0;32,04;34058;0,782;0,0346;0;1,6977;0,0001;5188;5504;1,49768;0;28;-6,033;21,585;40036189;0,0342;0;1,6767;0,0001;0,982;222,446;17,58;33,24;49,299;71,851;76,429;1;40036237;0;0;0;0;0;0;0;0;0;-1;0,00000000;0,00000000;0,00000000;0,00000000;0,00000000;0,00000000;0,00000000;
40036295;49,7;38,4;38,5;33,9;33,7;-85;31,24;20,88;-0,89;30,88;34097;0,786;0,0349;0;1,7093;0,0001;5341;5657;205,434;0;28;-6;21,596;40036256;0,0346;0;1,6977;0,0001;0,981;222,314;20,36;31,18;49,337;75,183;79,761;1;40036237;0;0;0;0;0;0;0;0;0;-1;0,00000000;0,00000000;0,00000000;0,00000000;0,00000000;0,00000000;0,00000000;
40036407;49,5;38,5;38,5;33,9;33,7;-85,2;31,86;21,39;0,38;31,63;34099;0,786;0,0355;0;1,7414;0,0001;5724;6040;163,783;0;28;-6,034;21,606;40036316;0,035;0;1,7152;0,0001;0,981;222,198;19,05;30,25;49,379;78,471;83,049;1;40036334;0;0;0;0;0;0;0;0;0;-1;0,00000000;0,00000000;0,00000000;0,00000000;0,00000000;0,00000000;0,00000000;
40036566;49,7;38,5;38,6;33,9;33,7;-85,3;30,91;20,73;-0,22;30,63;34149;0,786;0,0362;0;1,7761;0,0001;6109;6425;185,341;0;28;-6,023;21,621;40036407;0,0355;0;1,7414;0,0001;0,98;222,039;22,53;31,82;49,396;82,962;87,54;1;40036454;0;0;0;0;0;0;0;0;0;-1;0,00000000;0,00000000;0,00000000;0,00000000;0,00000000;0,00000000;0,00000000;
40036632;49,6;38,5;38,6;33,8;33,6;-85;31,41;21,09;0,12;31,17;34137;0,788;0,0369;0;1,808;0,0001;6493;6809;222,549;0;28;-6,029;21,615;40036567;0,0362;0;1,7761;0,0001;0,979;221,856;27,52;33,8;49,468;88,539;93,117;1;40036591;0;0;0;0;0;0;0;0;0;-1;0,00000000;0,00000000;0,00000000;0,00000000;0,00000000;0,00000000;0,00000000;
40036733;49,6;38,5;38,6;33,8;33,6;-85;30,76;20,65;0,06;30,52;34151;0,788;0,0374;0;1,8336;0,0001;6800;7116;269,995;0;28;-6,018;21,63;40036649;0,0369;0;1,808;0,0001;0,978;221,674;20,38;29,01;49,453;94,088;98,665;1;40036678;0;0;0;0;0;0;0;0;0;-1;0,00000000;0,00000000;0,00000000;0,00000000;0,00000000;0,00000000;0,00000000;
40036805;49,6;38,5;38,5;33,8;33,6;-85,5;31,02;20,81;-0,08;30,75;34152;0,787;0,0378;0;1,8538;0,0001;7031;7347;99,5242;0;28;-6,021;21,624;40036734;0,0374;0;1,8336;0,0001;0,978;221,542;23,1;35,26;49,469;98,549;103,127;1;40036747;0;0;0;0;0;0;0;0;0;-1;0,00000000;0,00000000;0,00000000;0,00000000;0,00000000;0,00000000;0,00000000;
40036879;49,6;38,5;38,7;33,8;33,6;-85,2;30,59;20,52;-0,08;30,31;34169;0,786;0,0383;0;1,8792;0,0001;7338;7654;179,451;0;28;-6,014;21,632;40036805;0,0378;0;1,8538;0,0001;0,977;221,44;22,51;34,76;49,472;101,881;106,459;1;40036832;0;0;0;0;0;0;0;0;0;-1;0,00000000;0,00000000;0,00000000;0,00000000;0,00000000;0,00000000;0,00000000;
40036948;49,6;38,5;38,5;33,8;33,6;-85,2;30,95;20,73;0,18;30,63;34166;0,786;0,0386;0;1,8963;0,0001;7569;7885;346,246;0;28;-6,023;21,629;40036880;0,0383;0;1,8792;0,0001;0,977;221,309;26,55;33,99;49,495;106,343;110,921;1;40036904;0;0;0;0;0;0;0;0;0;-1;0,00000000;0,00000000;0,00000000;0,00000000;0,00000000;0,00000000;0,00000000;
40037020;49,6;38,6;38,5;33,7;33,5;-85,5;30,9;20,78;-0,05;30,7;34161;0,785;0,039;0;1,9163;0,0001;7800;8116;148,963;0;28;-6,023;21,625;40036960;0,0387;0;1,8993;0,0001;0,976;221,212;25,81;34,62;49,494;109,689;114,267;1;40036991;0;0;0;0;0;0;0;0;0;-1;0,00000000;0,00000000;0,00000000;0,00000000;0,00000000;0,00000000;0,00000000;
40037065;49,7;38,6;38,6;33,9;33,7;-86,9;30,44;20,37;-0,37;30,07;34182;0,784;0,0393;0;1,9307;0,0001;7954;8270;11,4997;0;28;-6,02;21,631;40037021;0,039;0;1,9163;0,0001;0,976;221,115;19,39;31,52;49,485;113,021;117,599;1;40036991;0;0;0;0;0;0;0;0;0;-1;0,00000000;0,00000000;0,00000000;0,00000000;0,00000000;0,00000000;0,00000000;
40037158;49,6;38,5;38,6;33,7;33,6;-88,3;30,84;20,68;0,05;30,55;34171;0,786;0,0398;0;1,9563;0,0001;8261;8577;116,051;0;28;-6,016;21,619;40037065;0,0393;0;1,9307;0,0001;0,976;221,049;24,06;29,81;49,521;115,266;119,844;1;40037104;0;0;0;0;0;0;0;0;0;-1;0,00000000;0,00000000;0,00000000;0,00000000;0,00000000;0,00000000;0,00000000;
40037322;49,4;38,5;39;34;33,9;-88,1;30,6;20,52;0,03;30,3;34192;0,786;0,0405;0;1,9873;0,0001;8646;8962;122,974;0;28;-6,009;21,616;40037158;0,0398;0;1,9563;0,0001;0,975;220,915;13,14;25,73;49,503;119,699;124,291;1;40037193;0;0;0;0;0;0;0;0;0;-1;0,00000000;0,00000000;0,00000000;0,00000000;0,00000000;0,00000000;0,00000000;
40037385;49,6;38,7;38,6;33,5;33,4;-89,4;30,38;20,36;-0,28;30,06;34178;0,786;0,0411;0;2,0185;0,0001;9031;9347;186,408;0;28;-5,982;21,545;40037323;0,0405;0;1,9873;0,0001;0,974;220,729;23,01;29,93;49,534;125,291;129,869;1;40037342;0;0;0;0;0;0;0;0;0;-1;0,00000000;0,00000000;0,00000000;0,00000000;0,00000000;0,00000000;0,00000000;
40037425;49,6;38,6;38,9;33,9;33,7;-90,1;30,74;20,56;-0,3;30,34;34203;0,783;0,0414;0;2,0324;0,0001;9184;9500;54,7776;0;28;-5,981;21,579;40037386;0,0411;0;2,0185;0,0001;0,973;220,46;16,54;24,49;49,514;130,839;135,417;1;40037342;0;0;0;0;0;0;0;0;0;-1;0,00000000;0,00000000;0,00000000;0,00000000;0,00000000;0,00000000;0,00000000;
40037509;49,6;38,7;38,6;33,7;33,5;-89,8;30,64;20,3;-0,1;29,99;34200;0,784;0,0417;0;2,0494;0,0001;9415;9731;229,072;0;28;-5,949;21,518;40037425;0,0414;0;2,0324;0,0001;0,973;220,362;16,09;29,91;49,544;133,085;137,662;1;40037463;0;0;0;0;0;0;0;0;0;-1;0,00000000;0,00000000;0,00000000;0,00000000;0,00000000;0,00000000;0,00000000;
40037557;49,2;38,7;39,2;34,1;33,9;-89,8;31,14;20,86;0,84;30,78;34197;0,78;0,0421;0;2,069;0,0001;9646;9962;1,31979;0;28;-5,993;21,549;40037510;0,0417;0;2,0494;0,0001;0,972;220,183;28,14;36,99;49,54;136,431;141,009;1;40037463;0;0;0;0;0;0;0;0;0;-1;0,00000000;0,00000000;0,00000000;0,00000000;0,00000000;0,00000000;0,00000000;
40037644;49,5;38,6;38,6;33,7;33,5;-88,2;30;19,86;-0,26;29,37;34186;0,785;0,0425;0;2,0883;0,0001;9877;10193;187,163;0;28;-5,931;21,548;40037557;0,0421;0;2,069;0,0001;0,971;220,001;29,42;39,05;49,534;139,777;144,355;1;40037584;0;0;0;0;0;0;0;0;0;-1;0,00000000;0,00000000;0,00000000;0,00000000;0,00000000;0,00000000;0,00000000;
40037687;49,5;38,6;38,5;33,4;33,2;-88,2;30,54;20,35;-0,25;30,04;34180;0,786;0,0429;0;2,1078;0,0001;10107;10423;348,46;0;28;-5,971;21,523;40037647;0,0425;0;2,0883;0,0001;0,97;219,862;26,59;32,69;49,522;143,124;147,701;1;40037647;0;0;0;0;0;0;0;0;0;-1;0,00000000;0,00000000;0,00000000;0,00000000;0,00000000;0,00000000;0,00000000;
40037779;49,1;38,6;39;34;33,8;-88,1;31,56;21,02;0,55;31;34189;0,782;0,0432;0;2,1248;0,0001;10338;10654;168,752;0;28;-5,987;21,549;40037723;0,043;0;2,1133;0,0001;0,97;219,648;18,2;32,26;49,546;147,527;152,105;1;40037723;0;0;0;0;0;0;0;0;0;-1;0,00000000;0,00000000;0,00000000;0,00000000;0,00000000;0,00000000;0,00000000;
40037853;49,2;38,6;38,8;33,7;33,5;-89;30,25;20,03;0,12;29,6;34190;0,787;0,0437;0;2,1497;0,0001;10646;10962;277,534;0;28;-5,938;21,549;40037817;0,0435;0;2,1385;0,0001;0,969;219,429;16,88;27,44;49,563;152,004;156,581;1;40037817;0;0;0;0;0;0;0;0;0;-1;0,00000000;0,00000000;0,00000000;0,00000000;0,00000000;0,00000000;0,00000000;
40037903;49,6;38,6;38,8;33,7;33,5;-89;29,92;19,72;-1,58;29,15;34208;0,785;0,044;0;2,1637;0,0001;10800;11116;159,135;0;28;-5,921;21,517;40037817;0,0435;0;2,1385;0,0001;0,969;219,429;16,88;27,44;49,563;152,004;156,581;1;40037817;0;0;0;0;0;0;0;0;0;-1;0,00000000;0,00000000;0,00000000;0,00000000;0,00000000;0,00000000;0,00000000;
40037991;49,3;38,7;39;33,9;33,7;-89,7;31,11;20,77;0,5;30,63;34215;0,78;0,0444;0;2,1834;0,0001;11031;11347;353,377;0;28;-5,99;21,554;40037903;0,044;0;2,1637;0,0001;0,968;219,226;16,8;26,1;49,556;156,494;161,072;1;40037917;0;0;0;0;0;0;0;0;0;-1;0,00000000;0,00000000;0,00000000;0,00000000;0,00000000;0,00000000;0,00000000;
40038062;49,2;38,5;39,1;33,8;33,6;-89,1;30,66;20,42;0,09;30,15;34199;0,784;0,0449;0;2,2086;0,0001;11339;11655;96,0175;0;28;-5,966;21,537;40037991;0,0444;0;2,1834;0,0001;0,967;219,062;15,22;27,09;49,565;159,826;164,404;1;40038015;0;0;0;0;0;0;0;0;0;-1;0,00000000;0,00000000;0,00000000;0,00000000;0,00000000;0,00000000;0,00000000;
40038125;49,6;38,7;38,5;33,5;33,3;-89,9;29,78;19,73;-0,45;29,13;34214;0,783;0,0453;0;2,2252;0,0001;11570;11886;269,831;0;28;-5,958;21,554;40038064;0,0449;0;2,2086;0,0001;0,966;218,857;16,42;24,17;49,544;164,288;168,866;1;40038074;0;0;0;0;0;0;0;0;0;-1;0,00000000;0,00000000;0,00000000;0,00000000;0,00000000;0,00000000;0,00000000;
40038226;49,6;38,7;38,5;33,4;33,2;-90,9;30,3;20,16;0,28;29,79;34195;0,785;0,0458;0;2,2499;0,0001;11878;12194;12,1261;0;28;-5,943;21,53;40038125;0,0453;0;2,2252;0,0001;0,965;218,731;26,27;33,12;49,57;167,634;172,212;1;40038161;0;0;0;0;0;0;0;0;0;-1;0,00000000;0,00000000;0,00000000;0,00000000;0,00000000;0,00000000;0,00000000;
40038277;49,7;38,7;38,6;33,5;33,4;-90,6;30,22;20,15;-0,43;29,74;34205;0,787;0,0462;0;2,2695;0,0001;12108;12424;155,278;0;28;-5,946;21,526;40038227;0,0458;0;2,2499;0,0001;0,965;218,532;22,15;32,52;49,537;172,096;176,674;1;40038161;0;0;0;0;0;0;0;0;0;-1;0,00000000;0,00000000;0,00000000;0,00000000;0,00000000;0,00000000;0,00000000;
40038380;49,5;38,6;38,9;33,6;33,4;-90,4;30,65;20,51;0,33;30,25;34193;0,788;0,0467;0;2,2946;0,0001;12416;12732;290,032;0;28;-5,996;21,566;40038278;0,0462;0;2,2695;0,0001;0,964;218,373;18,59;23,17;49,555;175,442;180,02;1;40038304;0;0;0;0;0;0;0;0;0;-1;0,00000000;0,00000000;0,00000000;0,00000000;0,00000000;0,00000000;0,00000000;
40038440;49,6;38,6;38,5;33,4;33,2;-88,7;30,19;20;-0,28;29,55;34201;0,787;0,0471;0;2,3139;0,0001;12647;12963;115;0;28;-5,939;21,559;40038382;0,0467;0;2,2946;0,0001;0,963;218,205;19,34;26,77;49,536;179,904;184,482;1;40038394;0;0;0;0;0;0;0;0;0;-1;0,00000000;0,00000000;0,00000000;0,00000000;0,00000000;0,00000000;0,00000000;
40038503;49,6;38,6;38,5;33,2;33;-87,1;30,56;20,31;-0,06;29,97;34211;0,783;0,0475;0;2,3333;0,0001;12879;13195;300,846;0;28;-5,972;21,562;40038441;0,0471;0;2,3139;0,0001;0,963;218,095;16,41;29,23;49,546;183,25;187,828;1;40038479;0;0;0;0;0;0;0;0;0;-1;0,00000000;0,00000000;0,00000000;0,00000000;0,00000000;0,00000000;0,00000000;
40038611;49,5;38,6;38,8;33,5;33,3;-87;30,24;20,17;0,33;29,77;34204;0,789;0,0481;0;2,3636;0,0001;13262;13578;299,36;0;28;-5,959;21,566;40038504;0,0475;0;2,3333;0,0001;0,962;217,976;17,91;30,31;49,563;186,582;191,16;1;40038561;0;0;0;0;0;0;0;0;0;-1;0,00000000;0,00000000;0,00000000;0,00000000;0,00000000;0,00000000;0,00000000;
40038757;49,6;38,6;38,8;33,4;33,2;-85,9;30,41;20,12;-0,51;29,7;34225;0,786;0,0486;0;2,3887;0,0001;13571;13887;77,2151;0;28;-5,947;21,527;40038612;0,0481;0;2,3636;0,0001;0,961;217,789;17,58;30,48;49,547;192,159;196,752;1;40038654;0;0;0;0;0;0;0;0;0;-1;0,00000000;0,00000000;0,00000000;0,00000000;0,00000000;0,00000000;0,00000000;
40038823;49,5;38,6;38,6;33,3;33,1;-88,8;30,46;20,28;0,21;29,93;34202;0,787;0,0492;0;2,4193;0,0001;13956;14272;156,773;0;28;-5,966;21,557;40038759;0,0486;0;2,3887;0,0001;0,96;217,6;18,85;28,64;49,581;196,636;201,213;1;40038780;0;0;0;0;0;0;0;0;0;-1;0,00000000;0,00000000;0,00000000;0,00000000;0,00000000;0,00000000;0,00000000;
40038866;49,3;38,6;39,3;33,7;33,5;-88,9;30,32;20,39;0,17;30,02;34234;0,78;0,0495;0;2,4331;0,0001;14110;14426;20,8159;0;28;-5,99;21,563;40038823;0,0492;0;2,4193;0,0001;0,96;217,404;14,35;23,74;49,548;202,198;206,776;1;40038780;0;0;0;0;0;0;0;0;0;-1;0,00000000;0,00000000;0,00000000;0,00000000;0,00000000;0,00000000;0,00000000;
40038936;49,5;38,6;38,7;33,4;33,2;-90;29,91;19,91;-0,34;29,39;34223;0,784;0,0498;0;2,4497;0,0001;14341;14657;216,22;0;28;-5,956;21,557;40038866;0,0495;0;2,4331;0,0001;0,959;217,303;21,23;31,9;49,591;204,444;209,021;1;40038894;0;0;0;0;0;0;0;0;0;-1;0,00000000;0,00000000;0,00000000;0,00000000;0,00000000;0,00000000;0,00000000;
40038994;49,5;38,6;38,7;33,4;33,2;-90,5;30,02;19,98;0,37;29,5;34218;0,786;0,0502;0;2,4689;0,0001;14571;14887;330,083;0;28;-5,955;21,57;40038937;0,0498;0;2,4497;0,0001;0,959;217,206;23,47;30,9;49,578;207,776;212,353;1;40038994;0;0;0;0;0;0;0;0;0;-1;0,00000000;0,00000000;0,00000000;0,00000000;0,00000000;0,00000000;0,00000000;
40039063;49,6;38,6;38,5;33,3;33,1;-90,2;30,67;20,31;-0,12;29,98;34202;0,789;0,0505;0;2,4828;0,0001;14726;15042;269,347;0;28;-5,959;21,556;40038995;0,0502;0;2,4689;0,0001;0,958;217,11;19,72;36,56;49,564;211,151;215,728;1;40038994;0;0;0;0;0;0;0;0;0;-1;0,00000000;0,00000000;0,00000000;0,00000000;0,00000000;0,00000000;0,00000000;
40039115;49,6;38,6;38,9;33,5;33,2;-90,8;30,18;20,05;-0,18;29,57;34215;0,789;0,0508;0;2,4995;0,0001;14957;15273;71,9969;0;28;-5,947;21,533;40039063;0,0505;0;2,4828;0,0001;0,958;217,046;22,31;28,75;49,548;213,353;217,93;1;40039063;0;0;0;0;0;0;0;0;0;-1;0,00000000;0,00000000;0,00000000;0,00000000;0,00000000;0,00000000;0,00000000;
40039182;49,6;38,6;38,5;33,1;32,9;-87,1;30,42;20,23;-0,46;29,83;34229;0,783;0,0512;0;2,519;0,0001;15188;15504;263,683;0;28;-5,961;21,534;40039116;0,0509;0;2,5019;0,0001;0,957;216,918;13,27;22,9;49,571;216,714;221,291;1;40039130;0;0;0;0;0;0;0;0;0;-1;0,00000000;0,00000000;0,00000000;0,00000000;0,00000000;0,00000000;0,00000000;
40039290;49,2;38,6;39;33,7;33,4;-86,7;30,89;20,63;0,57;30,41;34213;0,781;0,0517;0;2,5441;0,0001;15495;15811;347,601;0;28;-5,989;21,552;40039183;0,0512;0;2,519;0,0001;0,957;216,793;23,78;29,3;49,588;220,045;224,623;1;40039225;0;0;0;0;0;0;0;0;0;-1;0,00000000;0,00000000;0,00000000;0,00000000;0,00000000;0,00000000;0,00000000;
40039340;49,6;38,7;38,5;33,1;32,9;-87;29,28;19,42;-0,3;28,66;34219;0,786;0,0521;0;2,5631;0,0001;15727;16043;203,536;0;28;-5,937;21,564;40039291;0,0517;0;2,5441;0,0001;0,956;216,625;16,25;25,46;49,565;224,507;229,085;1;40039293;0;0;0;0;0;0;0;0;0;-1;0,00000000;0,00000000;0,00000000;0,00000000;0,00000000;0,00000000;0,00000000;
40039411;49,6;38,5;38,6;33,1;32,9;-86,4;30,09;20,11;0,03;29,64;34227;0,785;0,0525;0;2,5823;0,0001;15958;16274;4,02606;0;28;-5,98;21,565;40039340;0,0521;0;2,5631;0,0001;0,956;216,542;21,11;25,49;49,577;227,853;232,431;1;40039369;0;0;0;0;0;0;0;0;0;-1;0,00000000;0,00000000;0,00000000;0,00000000;0,00000000;0,00000000;0,00000000;
40039458;49,4;38,6;38,7;33,2;33;-87,1;30,6;20,44;0,17;30,17;34207;0,786;0,0527;0;2,5935;0,0001;16111;16427;192,233;0;28;-5,952;21,564;40039440;0,0526;0;2,588;0,0001;0,955;216,415;14,9;27,77;49,548;232,272;236,849;1;40039440;0;0;0;0;0;0;0;0;0;-1;0,00000000;0,00000000;0,00000000;0,00000000;0,00000000;0,00000000;0,00000000;
40039565;49,2;38,5;39,2;33,7;33,5;-87;31,17;20,75;0,05;30,59;34195;0,785;0,0534;0;2,6248;0,0001;16496;16812;255,816;0;28;-5,981;21,523;40039440;0,0526;0;2,588;0,0001;0,955;216,415;14,9;27,77;49,548;232,272;236,849;1;40039440;0;0;0;0;0;0;0;0;0;-1;0,00000000;0,00000000;0,00000000;0,00000000;0,00000000;0,00000000;0,00000000;
40039641;49,6;38,6;38,5;33,1;32,9;-88,6;30,29;20,09;-0,35;29,67;34190;0,787;0,0538;0;2,6444;0,0001;16727;17043;107,007;0;28;-5,942;21,537;40039566;0,0534;0;2,6248;0,0001;0,954;216,163;17,02;27,36;49,539;239,008;243,586;1;40039580;0;0;0;0;0;0;0;0;0;-1;0,00000000;0,00000000;0,00000000;0,00000000;0,00000000;0,00000000;0,00000000;
40039719;49,5;38,6;38,8;33,4;33,1;-89,3;31,62;21,05;0,15;31,08;34141;0,786;0,0543;0;2,6702;0,0001;17034;17350;135,623;0;28;-5,979;21,52;40039642;0,0538;0;2,6444;0,0001;0,954;216,076;16,32;24,38;49,533;242,34;246,917;1;40039651;0;0;0;0;0;0;0;0;0;-1;0,00000000;0,00000000;0,00000000;0,00000000;0,00000000;0,00000000;0,00000000;
40039791;49,6;38,6;38,4;33;32,7;-87,9;32,22;21,51;-0,48;31,76;34117;0,781;0,0547;0;2,6909;0,0001;17265;17581;303,234;0;28;-5,983;21,465;40039720;0,0543;0;2,6702;0,0001;0,953;215,937;23,8;32,25;49,461;246,801;251,379;1;40039745;0;0;0;0;0;0;0;0;0;-1;0,00000000;0,00000000;0,00000000;0,00000000;0,00000000;0,00000000;0,00000000;
40039902;49,5;38,6;38,6;33;32,8;-89,8;33,2;22,14;0,51;32,72;34049;0,785;0,0553;0;2,718;0,0001;17570;17886;280,165;0;28;-5,993;21,472;40039791;0,0547;0;2,6909;0,0001;0,952;215,788;18,14;32,49;49,424;250,133;254,711;1;40039831;0;0;0;0;0;0;0;0;0;-1;0,00000000;0,00000000;0,00000000;0,00000000;0,00000000;0,00000000;0,00000000;
40039962;48,9;38,5;39;33,4;33,2;-88,5;33,96;22,75;0,43;33,58;34025;0,78;0,0558;0;2,7456;0,0001;17876;18192;296,635;0;28;-6,019;21,456;40039904;0,0553;0;2,718;0,0001;0,952;215,608;22,13;35,9;49,325;254,566;259,144;1;40039904;0;0;0;0;0;0;0;0;0;-1;0,00000000;0,00000000;0,00000000;0,00000000;0,00000000;0,00000000;0,00000000;
40040031;49,3;38,5;38,6;33,1;32,9;-88,5;33,74;22,39;-0,31;33,13;33980;0,783;0,0563;0;2,7673;0,0001;18106;18422;48,73;0;28;-5,984;21,426;40039962;0,0558;0;2,7456;0,0001;0,951;215,401;21,13;36,37;49,289;258,999;263,577;1;40039998;0;0;0;0;0;0;0;0;0;-1;0,00000000;0,00000000;0,00000000;0,00000000;0,00000000;0,00000000;0,00000000;
40040177;49,3;38,5;38,6;33,1;32,9;-87,1;34,61;23,08;-0,11;34,14;33947;0,785;0,0568;0;2,7957;0,0001;18411;18727;335,974;0;28;-6,009;21,41;40040031;0,0563;0;2,7673;0,0001;0,95;215,274;30,25;41,13;49,223;262,316;266,894;1;40040054;0;0;0;0;0;0;0;0;0;-1;0,00000000;0,00000000;0,00000000;0,00000000;0,00000000;0,00000000;0,00000000;
40040243;49,4;38,5;38,4;32,9;32,6;-89,5;35,11;23,34;-0,21;34,48;33939;0,787;0,0576;0;2,8312;0,0001;18793;19109;224,365;0;28;-6,028;21,387;40040179;0,0568;0;2,7957;0,0001;0,949;215,078;26,7;40,03;49,17;266,749;271,327;1;40040208;0;0;0;0;0;0;0;0;0;-1;0,00000000;0,00000000;0,00000000;0,00000000;0,00000000;0,00000000;0,00000000;
