ms_today;input_voltage;temp_mos_max;temp_mos_1;temp_mos_2;temp_mos_3;temp_motor;current_motor;current_in;d_axis_current;q_axis_current;erpm;duty_cycle;amp_hours_used;amp_hours_charged;watt_hours_used;watt_hours_charged;tachometer;tachometer_abs;encoder_position;fault_code;vesc_id;d_axis_voltage;q_axis_voltage;ms_today_setup;amp_hours_setup;amp_hours_charged_setup;watt_hours_setup;watt_hours_charged_setup;battery_level;battery_wh_tot;current_in_setup;current_motor_setup;speed_meters_per_sec;tacho_meters;tacho_abs_meters;num_vescs;ms_today_imu;roll;pitch;yaw;accX;accY;accZ;gyroX;gyroY;gyroZ;gnss_posTime;gnss_lat;gnss_lon;gnss_alt;gnss_gVel;gnss_vVel;gnss_hAcc;gnss_vAcc;
39009947;52;36.4;36.6;28.1;27.8;-73;-0.53;0;0.57;-0.12;0;0;0.8226;0.0253;40.8784;1.4648;519873;520995;316.987;0;28;0.052;0.046;39006124;0.8226;0.0253;40.8784;1.4648;1.017;230.4;0;-0.43;0;7531;7547.26;1;39006124;0;0;0;0;0;0;0;0;0;-1;0.00000000;0.00000000;0.00000000;0.00000000;0.00000000;0.00000000;0.00000000;
39010071;52;36.4;36.4;28;27.8;-73.2;-0.53;0;0.56;-0.14;0;0;0.8226;0.0253;40.8784;1.4648;519873;520995;317.22;0;28;0.052;0.045;39009948;0.8226;0.0253;40.8784;1.4648;1.017;230.42;0;-0.41;0;7531;7547.26;1;39010007;0;0;0;0;0;0;0;0;0;-1;0.00000000;0.00000000;0.00000000;0.00000000;0.00000000;0.00000000;0.00000000;
39010128;52;36.4;36.4;28;27.7;-74.1;-0.55;0;0.57;-0.13;0;0;0.8226;0.0253;40.8784;1.4648;519873;520995;317.287;0;28;0.052;0.045;39010072;0.8226;0.0253;40.8784;1.4648;1.017;230.421;0;0.28;0;7531;7547.26;1;39010081;0;0;0;0;0;0;0;0;0;-1;0.00000000;0.00000000;0.00000000;0.00000000;0.00000000;0.00000000;0.00000000;
39010194;52;36.4;36.5;28;27.7;-74.6;-0.43;0;0.47;-0.1;0;0;0.8226;0.0253;40.8784;1.4648;519873;520995;317.062;0;28;0.053;0.045;39010128;0.8226;0.0253;40.8784;1.4648;1.017;230.422;0;0.15;0;7531;7547.26;1;39010149;0;0;0;0;0;0;0;0;0;-1;0.00000000;0.00000000;0.00000000;0.00000000;0.00000000;0.00000000;0.00000000;
39010262;52;36.5;36.4;28;27.7;-74.6;-0.53;0;0.57;-0.12;0;0;0.8226;0.0253;40.8784;1.4648;519873;520995;316.842;0;28;0.053;0.045;39010195;0.8226;0.0253;40.8784;1.4648;1.017;230.422;0;-0.52;0;7531;7547.26;1;39010217;0;0;0;0;0;0;0;0;0;-1;0.00000000;0.00000000;0.00000000;0.00000000;0.00000000;0.00000000;0.00000000;
39010331;52;36.4;36.3;28;27.8;-74.8;-0.51;0;0.53;-0.13;0;0;0.8226;0.0253;40.8784;1.4648;519873;520995;316.695;0;28;0.054;0.046;39010289;0.8226;0.0253;40.8784;1.4648;1.017;230.424;0;-0.5;0;7531;7547.26;1;39010289;0;0;0;0;0;0;0;0;0;-1;0.00000000;0.00000000;0.00000000;0.00000000;0.00000000;0.00000000;0.00000000;
39010375;52;36.4;36.4;28;27.7;-74.5;-0.46;0;0.48;-0.1;0;0;0.8226;0.0253;40.8784;1.4648;519873;520995;316.635;0;28;0.054;0.045;39010289;0.8226;0.0253;40.8784;1.4648;1.017;230.424;0;-0.5;0;7531;7547.26;1;39010289;0;0;0;0;0;0;0;0;0;-1;0.00000000;0.00000000;0.00000000;0.00000000;0.00000000;0.00000000;0.00000000;
39010444;52;36.4;36.5;28;27.8;-74.4;-0.44;0;0.49;-0.09;0;0;0.8226;0.0253;40.8784;1.4648;519873;520995;316.694;0;28;0.052;0.046;39010376;0.8226;0.0253;40.8784;1.4648;1.017;230.426;0;-0.8;0;7531;7547.26;1;39010398;0;0;0;0;0;0;0;0;0;-1;0.00000000;0.00000000;0.00000000;0.00000000;0.00000000;0.00000000;0.00000000;
39010555;52;36.4;36.4;28;27.8;-74.2;-0.51;0;0.54;-0.12;0;0;0.8226;0.0253;40.8784;1.4648;519873;520995;316.582;0;28;0.053;0.045;39010445;0.8226;0.0253;40.8784;1.4648;1.017;230.427;0;-0.67;0;7531;7547.26;1;39010467;0;0;0;0;0;0;0;0;0;-1;0.00000000;0.00000000;0.00000000;0.00000000;0.00000000;0.00000000;0.00000000;
39010624;52;36.4;36.4;28;27.7;-74;-0.54;0;0.56;-0.13;0;0;0.8226;0.0253;40.8784;1.4648;519873;520995;316.552;0;28;0.053;0.046;39010556;0.8226;0.0253;40.8784;1.4648;1.017;230.43;-0.01;-0.81;0;7531;7547.26;1;39010579;0;0;0;0;0;0;0;0;0;-1;0.00000000;0.00000000;0.00000000;0.00000000;0.00000000;0.00000000;0.00000000;
39010691;52;36.4;36.4;28;27.8;-73.1;-0.58;0;0.6;-0.14;0;0;0.8226;0.0253;40.8784;1.4648;519873;520995;316.502;0;28;0.053;0.045;39010625;0.8226;0.0253;40.8784;1.4648;1.017;230.431;0;-0.1;0;7531;7547.26;1;39010646;0;0;0;0;0;0;0;0;0;-1;0.00000000;0.00000000;0.00000000;0.00000000;0.00000000;0.00000000;0.00000000;
39010805;52;36.4;36.5;28;27.8;-74.5;-0.34;0;0.42;-0.08;0;0;0.8226;0.0253;40.8784;1.4648;519873;520995;316.6;0;28;0.052;0.046;39010692;0.8226;0.0253;40.8784;1.4648;1.017;230.432;0;0.07;0;7531;7547.26;1;39010714;0;0;0;0;0;0;0;0;0;-1;0.00000000;0.00000000;0.00000000;0.00000000;0.00000000;0.00000000;0.00000000;
39010871;52;36.4;36.5;28;27.8;-74.8;-0.52;0;0.56;-0.13;0;0;0.8226;0.0253;40.8784;1.4648;519873;520995;316.742;0;28;0.052;0.046;39010805;0.8226;0.0253;40.8784;1.4648;1.017;230.433;0;-0.46;0;7531;7547.26;1;39010827;0;0;0;0;0;0;0;0;0;-1;0.00000000;0.00000000;0.00000000;0.00000000;0.00000000;0.00000000;0.00000000;
39010938;52;36.4;36.5;28;27.8;-74.8;-0.48;0;0.51;-0.11;0;0;0.8226;0.0253;40.8784;1.4648;519873;520995;316.599;0;28;0.053;0.046;39010873;0.8226;0.0253;40.8784;1.4648;1.017;230.434;0;-0.36;0;7531;7547.26;1;39010893;0;0;0;0;0;0;0;0;0;-1;0.00000000;0.00000000;0.00000000;0.00000000;0.00000000;0.00000000;0.00000000;
39011028;52;36.4;36.4;27.9;27.7;-73.7;-0.61;0;0.62;-0.14;0;0;0.8226;0.0253;40.8784;1.4648;519873;520995;316.311;0;28;0.054;0.046;39010939;0.8226;0.0253;40.8784;1.4648;1.017;230.434;0;0.03;0;7531;7547.26;1;39010986;0;0;0;0;0;0;0;0;0;-1;0.00000000;0.00000000;0.00000000;0.00000000;0.00000000;0.00000000;0.00000000;
39011074;52;36.4;36.5;28.1;27.8;-73.2;-0.53;0;0.57;-0.12;0;0;0.8226;0.0253;40.8784;1.4648;519873;520995;316.139;0;28;0.053;0.046;39011029;0.8226;0.0253;40.8784;1.4648;1.017;230.436;0;0.06;0;7531;7547.26;1;39010986;0;0;0;0;0;0;0;0;0;-1;0.00000000;0.00000000;0.00000000;0.00000000;0.00000000;0.00000000;0.00000000;
39011141;52;36.4;36.5;28;27.8;-72.9;-0.5;0;0.56;-0.13;0;0;0.8226;0.0253;40.8784;1.4648;519873;520995;316.13;0;28;0.053;0.046;39011076;0.8226;0.0253;40.8784;1.4648;1.017;230.437;0;-0.04;0;7531;7547.26;1;39011095;0;0;0;0;0;0;0;0;0;-1;0.00000000;0.00000000;0.00000000;0.00000000;0.00000000;0.00000000;0.00000000;
39011230;52;36.4;36.5;28;27.8;-73;-0.55;0;0.58;-0.12;0;0;0.8226;0.0253;40.8784;1.4648;519873;520995;315.877;0;28;0.054;0.046;39011143;0.8226;0.0253;40.8784;1.4648;1.017;230.438;0;0.22;0;7531;7547.26;1;39011164;0;0;0;0;0;0;0;0;0;-1;0.00000000;0.00000000;0.00000000;0.00000000;0.00000000;0.00000000;0.00000000;
39011299;52;36.4;36.4;27.9;27.7;-72.9;-0.59;0;0.61;-0.14;0;0;0.8226;0.0253;40.8784;1.4648;519873;520995;315.86;0;28;0.053;0.047;39011231;0.8226;0.0253;40.8784;1.4648;1.017;230.439;0;-0.28;0;7531;7547.26;1;39011253;0;0;0;0;0;0;0;0;0;-1;0.00000000;0.00000000;0.00000000;0.00000000;0.00000000;0.00000000;0.00000000;
39011365;52;36.4;36.6;28;27.7;-72.6;-0.59;0;0.64;-0.13;0;0;0.8226;0.0253;40.8784;1.4648;519873;520995;315.867;0;28;0.053;0.046;39011300;0.8226;0.0253;40.8784;1.4648;1.017;230.44;0;0.1;0;7531;7547.26;1;39011321;0;0;0;0;0;0;0;0;0;-1;0.00000000;0.00000000;0.00000000;0.00000000;0.00000000;0.00000000;0.00000000;
39011443;52;36.4;36.5;28;27.7;-73.5;-0.35;0;0.44;-0.07;0;0;0.8226;0.0253;40.8784;1.4648;519873;520995;315.737;0;28;0.052;0.046;39011389;0.8226;0.0253;40.8784;1.4648;1.017;230.441;0;-0.21;0;7531;7547.26;1;39011389;0;0;0;0;0;0;0;0;0;-1;0.00000000;0.00000000;0.00000000;0.00000000;0.00000000;0.00000000;0.00000000;
39011523;52;36.4;36.4;27.9;27.7;-74.5;-0.33;0;0.39;-0.08;0;0;0.8226;0.0253;40.8784;1.4648;519873;520995;315.58;0;28;0.051;0.046;39011478;0.8226;0.0253;40.8784;1.4648;1.017;230.443;0;0.11;0;7531;7547.26;1;39011478;0;0;0;0;0;0;0;0;0;-1;0.00000000;0.00000000;0.00000000;0.00000000;0.00000000;0.00000000;0.00000000;
39011595;52;36.4;36.5;28;27.8;-73.9;-0.42;0;0.5;-0.1;0;0;0.8226;0.0253;40.8784;1.4648;519873;520995;315.775;0;28;0.051;0.047;39011523;0.8226;0.0253;40.8784;1.4648;1.017;230.443;0;-0.14;0;7531;7547.26;1;39011554;0;0;0;0;0;0;0;0;0;-1;0.00000000;0.00000000;0.00000000;0.00000000;0.00000000;0.00000000;0.00000000;
39011657;52;36.4;36.5;28.1;27.8;-73.6;-0.41;0;0.47;-0.09;0;0;0.8226;0.0253;40.8784;1.4648;519873;520995;315.822;0;28;0.052;0.047;39011596;0.8226;0.0253;40.8784;1.4648;1.017;230.444;-0.01;-0.66;0;7531;7547.26;1;39011624;0;0;0;0;0;0;0;0;0;-1;0.00000000;0.00000000;0.00000000;0.00000000;0.00000000;0.00000000;0.00000000;
39011770;51.9;36.4;36.5;28.2;27.9;-73.9;-0.56;0;0.61;-0.11;0;0;0.8226;0.0253;40.8784;1.4648;519873;520995;315.943;0;28;0.052;0.046;39011658;0.8226;0.0253;40.8784;1.4648;1.017;230.445;0;-0.29;0;7531;7547.26;1;39011702;0;0;0;0;0;0;0;0;0;-1;0.00000000;0.00000000;0.00000000;0.00000000;0.00000000;0.00000000;0.00000000;
39011838;52;36.4;36.4;27.9;27.7;-74;-0.49;0;0.53;-0.11;0;0;0.8226;0.0253;40.8784;1.4648;519873;520995;315.805;0;28;0.053;0.046;39011775;0.8226;0.0253;40.8784;1.4648;1.017;230.445;0;-0.33;0;7531;7547.26;1;39011794;0;0;0;0;0;0;0;0;0;-1;0.00000000;0.00000000;0.00000000;0.00000000;0.00000000;0.00000000;0.00000000;
39011908;52;36.4;36.4;28;27.7;-73.7;-0.4;0;0.46;-0.09;0;0;0.8226;0.0253;40.8784;1.4648;519873;520995;315.824;0;28;0.052;0.047;39011865;0.8226;0.0253;40.8784;1.4648;1.017;230.446;0;-0.74;0;7531;7547.26;1;39011866;0;0;0;0;0;0;0;0;0;-1;0.00000000;0.00000000;0.00000000;0.00000000;0.00000000;0.00000000;0.00000000;
39011974;52;36.4;36.4;28.1;27.8;-74.2;-0.39;0;0.43;-0.09;0;0;0.8226;0.0253;40.8784;1.4648;519873;520995;315.841;0;28;0.051;0.047;39011908;0.8226;0.0253;40.8784;1.4648;1.017;230.447;0;-0.23;0;7531;7547.26;1;39011931;0;0;0;0;0;0;0;0;0;-1;0.00000000;0.00000000;0.00000000;0.00000000;0.00000000;0.00000000;0.00000000;
39012064;52;36.4;36.5;27.8;27.6;-73.5;-0.57;0;0.59;-0.13;0;0;0.8226;0.0253;40.8784;1.4648;519873;520995;315.809;0;28;0.052;0.047;39011975;0.8226;0.0253;40.8784;1.4648;1.017;230.448;0;0.13;0;7531;7547.26;1;39012019;0;0;0;0;0;0;0;0;0;-1;0.00000000;0.00000000;0.00000000;0.00000000;0.00000000;0.00000000;0.00000000;
39012133;52;36.4;36.4;27.9;27.7;-73.4;-0.4;0;0.44;-0.09;0;0;0.8226;0.0253;40.8784;1.4648;519873;520995;315.585;0;28;0.052;0.046;39012065;0.8226;0.0253;40.8784;1.4648;1.017;230.449;0;0.16;0;7531;7547.26;1;39012087;0;0;0;0;0;0;0;0;0;-1;0.00000000;0.00000000;0.00000000;0.00000000;0.00000000;0.00000000;0.00000000;
39012244;52;36.4;36.5;27.9;27.7;-74.1;-0.46;0;0.52;-0.1;0;0;0.8226;0.0253;40.8784;1.4648;519873;520995;315.149;0;28;0.053;0.046;39012133;0.8226;0.0253;40.8784;1.4648;1.017;230.45;0;-0.19;0;7531;7547.26;1;39012155;0;0;0;0;0;0;0;0;0;-1;0.00000000;0.00000000;0.00000000;0.00000000;0.00000000;0.00000000;0.00000000;
39012311;52;36.4;36.4;28;27.7;-73.9;-0.37;0;0.44;-0.08;0;0;0.8226;0.0253;40.8784;1.4648;519873;520995;315.045;0;28;0.052;0.047;39012245;0.8226;0.0253;40.8784;1.4648;1.017;230.452;0;0.13;0;7531;7547.26;1;39012267;0;0;0;0;0;0;0;0;0;-1;0.00000000;0.00000000;0.00000000;0.00000000;0.00000000;0.00000000;0.00000000;
39012378;52;36.4;36.4;28.1;27.8;-73.7;-0.42;0;0.49;-0.09;0;0;0.8226;0.0253;40.8784;1.4648;519873;520995;315.082;0;28;0.052;0.047;39012313;0.8226;0.0253;40.8784;1.4648;1.017;230.452;0;0.37;0;7531;7547.26;1;39012335;0;0;0;0;0;0;0;0;0;-1;0.00000000;0.00000000;0.00000000;0.00000000;0.00000000;0.00000000;0.00000000;
39012469;52;36.4;36.5;28;27.7;-73.4;-0.42;0;0.49;-0.08;0;0;0.8226;0.0253;40.8784;1.4648;519873;520995;315.06;0;28;0.052;0.047;39012379;0.8226;0.0253;40.8784;1.4648;1.017;230.453;0;-0.23;0;7531;7547.26;1;39012427;0;0;0;0;0;0;0;0;0;-1;0.00000000;0.00000000;0.00000000;0.00000000;0.00000000;0.00000000;0.00000000;
39012515;52;36.4;36.5;28;27.8;-73.6;-0.39;0;0.45;-0.09;0;0;0.8226;0.0253;40.8784;1.4648;519873;520995;315.095;0;28;0.051;0.047;39012470;0.8226;0.0253;40.8784;1.4648;1.017;230.454;0;0.17;0;7531;7547.26;1;39012427;0;0;0;0;0;0;0;0;0;-1;0.00000000;0.00000000;0.00000000;0.00000000;0.00000000;0.00000000;0.00000000;
39012582;52;36.4;36.3;27.9;27.7;-73.8;-0.39;0;0.48;-0.08;0;0;0.8226;0.0253;40.8784;1.4648;519873;520995;315.05;0;28;0.052;0.047;39012517;0.8226;0.0253;40.8784;1.4648;1.017;230.455;0;-0.16;0;7531;7547.26;1;39012538;0;0;0;0;0;0;0;0;0;-1;0.00000000;0.00000000;0.00000000;0.00000000;0.00000000;0.00000000;0.00000000;
39012672;52;36.4;36.5;28;27.8;-74.1;-0.47;0;0.52;-0.11;0;0;0.8226;0.0253;40.8784;1.4648;519873;520995;315.075;0;28;0.052;0.047;39012583;0.8226;0.0253;40.8784;1.4648;1.017;230.455;0;-0.17;0;7531;7547.26;1;39012603;0;0;0;0;0;0;0;0;0;-1;0.00000000;0.00000000;0.00000000;0.00000000;0.00000000;0.00000000;0.00000000;
39012741;52;36.4;36.4;28;27.8;-74.2;-0.38;0;0.45;-0.07;0;0;0.8226;0.0253;40.8784;1.4648;519873;520995;315.043;0;28;0.052;0.047;39012673;0.8226;0.0253;40.8784;1.4648;1.017;230.456;0;-0.21;0;7531;7547.26;1;39012697;0;0;0;0;0;0;0;0;0;-1;0.00000000;0.00000000;0.00000000;0.00000000;0.00000000;0.00000000;0.00000000;
39012807;52;36.4;36.4;27.9;27.6;-73.8;-0.56;0;0.66;-0.12;0;0;0.8226;0.0253;40.8784;1.4648;519873;520995;315.097;0;28;0.052;0.047;39012741;0.8226;0.0253;40.8784;1.4648;1.017;230.457;0;0.11;0;7531;7547.26;1;39012762;0;0;0;0;0;0;0;0;0;-1;0.00000000;0.00000000;0.00000000;0.00000000;0.00000000;0.00000000;0.00000000;
39012875;52;36.4;36.4;27.9;27.7;-73.7;-0.59;0;0.62;-0.14;0;0;0.8226;0.0253;40.8784;1.4648;519873;520995;315.048;0;28;0.052;0.047;39012829;0.8226;0.0253;40.8784;1.4648;1.017;230.458;-0.01;-1.03;0;7531;7547.26;1;39012829;0;0;0;0;0;0;0;0;0;-1;0.00000000;0.00000000;0.00000000;0.00000000;0.00000000;0.00000000;0.00000000;
39012965;52;36.4;36.4;27.9;27.7;-73.7;-0.42;0;0.48;-0.1;0;0;0.8226;0.0253;40.8784;1.4648;519873;520995;315.077;0;28;0.052;0.047;39012920;0.8226;0.0253;40.8784;1.4648;1.017;230.46;-0.01;-0.65;0;7531;7547.26;1;39012920;0;0;0;0;0;0;0;0;0;-1;0.00000000;0.00000000;0.00000000;0.00000000;0.00000000;0.00000000;0.00000000;
39013032;52;36.4;36.4;28;27.7;-73.8;-0.24;0;0.33;-0.05;0;0;0.8226;0.0253;40.8784;1.4648;519873;520995;315.182;0;28;0.049;0.047;39012965;0.8226;0.0253;40.8784;1.4648;1.017;230.46;0;-0.56;0;7531;7547.26;1;39012987;0;0;0;0;0;0;0;0;0;-1;0.00000000;0.00000000;0.00000000;0.00000000;0.00000000;0.00000000;0.00000000;
39013122;52;36.4;36.6;28;27.7;-73.8;-0.29;0;0.37;-0.06;0;0;0.8226;0.0253;40.8784;1.4648;519873;520995;315.089;0;28;0.05;0.047;39013033;0.8226;0.0253;40.8784;1.4648;1.017;230.46;0;0.3;0;7531;7547.26;1;39013055;0;0;0;0;0;0;0;0;0;-1;0.00000000;0.00000000;0.00000000;0.00000000;0.00000000;0.00000000;0.00000000;
39013212;52;36.4;36.5;28;27.7;-74.5;-0.38;0;0.45;-0.08;0;0;0.8226;0.0253;40.8784;1.4648;519873;520995;315.091;0;28;0.051;0.047;39013124;0.8226;0.0253;40.8784;1.4648;1.017;230.461;0;0.05;0;7531;7547.26;1;39013143;0;0;0;0;0;0;0;0;0;-1;0.00000000;0.00000000;0.00000000;0.00000000;0.00000000;0.00000000;0.00000000;
39013281;52;36.5;36.5;28.1;27.8;-74.9;-0.21;0;0.29;-0.04;0;0;0.8226;0.0253;40.8784;1.4648;519873;520995;315.083;0;28;0.05;0.047;39013213;0.8226;0.0253;40.8784;1.4648;1.017;230.461;0;-0.85;0;7531;7547.26;1;39013233;0;0;0;0;0;0;0;0;0;-1;0.00000000;0.00000000;0.00000000;0.00000000;0.00000000;0.00000000;0.00000000;
39013344;52;36.5;36.5;27.9;27.7;-75.3;-0.31;0;0.41;-0.07;0;0;0.8226;0.0253;40.8784;1.4648;519873;520995;315.095;0;28;0.051;0.047;39013281;0.8226;0.0253;40.8784;1.4648;1.017;230.461;0;-0.14;0;7531;7547.26;1;39013300;0;0;0;0;0;0;0;0;0;-1;0.00000000;0.00000000;0.00000000;0.00000000;0.00000000;0.00000000;0.00000000;
39013412;52;36.5;36.5;28;27.7;-74.1;-0.46;0;0.5;-0.1;0;0;0.8226;0.0253;40.8784;1.4648;519873;520995;315.231;0;28;0.051;0.047;39013346;0.8226;0.0253;40.8784;1.4648;1.017;230.461;0;-0.3;0;7531;7547.26;1;39013377;0;0;0;0;0;0;0;0;0;-1;0.00000000;0.00000000;0.00000000;0.00000000;0.00000000;0.00000000;0.00000000;
39013481;52;36.4;36.4;28;27.7;-73.9;-0.46;0;0.56;-0.1;0;0;0.8226;0.0253;40.8784;1.4648;519873;520995;315.36;0;28;0.051;0.047;39013445;0.8226;0.0253;40.8784;1.4648;1.017;230.462;-0.01;-0.49;0;7531;7547.26;1;39013445;0;0;0;0;0;0;0;0;0;-1;0.00000000;0.00000000;0.00000000;0.00000000;0.00000000;0.00000000;0.00000000;
39013552;52;36.4;36.4;28;27.7;-73.8;-0.54;0;0.57;-0.12;0;0;0.8226;0.0253;40.8784;1.4648;519873;520995;315.592;0;28;0.051;0.047;39013485;0.8226;0.0253;40.8784;1.4648;1.017;230.463;0;-0.19;0;7531;7547.26;1;39013528;0;0;0;0;0;0;0;0;0;-1;0.00000000;0.00000000;0.00000000;0.00000000;0.00000000;0.00000000;0.00000000;
39013651;52;36.4;36.4;27.9;27.7;-73.8;-0.59;0;0.62;-0.14;0;0;0.8226;0.0253;40.8784;1.4648;519873;520995;316.004;0;28;0.05;0.047;39013553;0.8226;0.0253;40.8784;1.4648;1.017;230.463;0;-0.6;0;7531;7547.26;1;39013528;0;0;0;0;0;0;0;0;0;-1;0.00000000;0.00000000;0.00000000;0.00000000;0.00000000;0.00000000;0.00000000;
39013684;52;36.4;36.4;27.9;27.7;-73.9;-0.49;0;0.49;-0.12;0;0;0.8226;0.0253;40.8784;1.4648;519873;520995;315.931;0;28;0.051;0.046;39013652;0.8226;0.0253;40.8784;1.4648;1.017;230.464;0;-0.12;0;7531;7547.26;1;39013684;0;0;0;0;0;0;0;0;0;-1;0.00000000;0.00000000;0.00000000;0.00000000;0.00000000;0.00000000;0.00000000;
39013781;52;36.4;36.4;27.9;27.6;-73.8;-0.51;0;0.54;-0.11;0;0;0.8226;0.0253;40.8784;1.4648;519873;520995;316.09;0;28;0.052;0.047;39013684;0.8226;0.0253;40.8784;1.4648;1.017;230.465;0;-0.48;0;7531;7547.26;1;39013684;0;0;0;0;0;0;0;0;0;-1;0.00000000;0.00000000;0.00000000;0.00000000;0.00000000;0.00000000;0.00000000;
39013847;52;36.4;36.4;28;27.8;-74;-0.32;0;0.39;-0.08;0;0;0.8226;0.0253;40.8784;1.4648;519873;520995;316.156;0;28;0.051;0.046;39013782;0.8226;0.0253;40.8784;1.4648;1.017;230.465;0;-0.38;0;7531;7547.26;1;39013798;0;0;0;0;0;0;0;0;0;-1;0.00000000;0.00000000;0.00000000;0.00000000;0.00000000;0.00000000;0.00000000;
39013947;52;36.4;36.5;28;27.7;-74.2;-0.29;0;0.38;-0.06;0;0;0.8226;0.0253;40.8784;1.4648;519873;520995;316.03;0;28;0.052;0.046;39013847;0.8226;0.0253;40.8784;1.4648;1.017;230.466;0;-0.21;0;7531;7547.26;1;39013864;0;0;0;0;0;0;0;0;0;-1;0.00000000;0.00000000;0.00000000;0.00000000;0.00000000;0.00000000;0.00000000;
39014027;52;36.4;36.5;28.1;27.9;-74.3;-0.16;0;0.23;-0.04;0;0;0.8226;0.0253;40.8784;1.4648;519873;520995;315.886;0;28;0.051;0.046;39013948;0.8226;0.0253;40.8784;1.4648;1.017;230.467;0;0.16;0;7531;7547.26;1;39013957;0;0;0;0;0;0;0;0;0;-1;0.00000000;0.00000000;0.00000000;0.00000000;0.00000000;0.00000000;0.00000000;
39014098;52;36.5;36.6;28;27.8;-74.4;-0.26;0;0.37;-0.05;0;0;0.8226;0.0253;40.8784;1.4648;519873;520995;315.964;0;28;0.051;0.046;39014028;0.8226;0.0253;40.8784;1.4648;1.017;230.467;-0.01;-0.44;0;7531;7547.26;1;39014043;0;0;0;0;0;0;0;0;0;-1;0.00000000;0.00000000;0.00000000;0.00000000;0.00000000;0.00000000;0.00000000;
39014198;52;36.4;36.5;28.1;27.8;-75.1;-0.34;0;0.4;-0.08;0;0;0.8226;0.0253;40.8784;1.4648;519873;520995;315.83;0;28;0.052;0.046;39014099;0.8226;0.0253;40.8784;1.4648;1.017;230.468;0;0.01;0;7531;7547.26;1;39014117;0;0;0;0;0;0;0;0;0;-1;0.00000000;0.00000000;0.00000000;0.00000000;0.00000000;0.00000000;0.00000000;
39014265;52;36.4;36.4;28;27.7;-75.2;-0.34;0;0.39;-0.08;0;0;0.8226;0.0253;40.8784;1.4648;519873;520995;315.726;0;28;0.051;0.047;39014199;0.8226;0.0253;40.8784;1.4648;1.017;230.468;0;-0.18;0;7531;7547.26;1;39014214;0;0;0;0;0;0;0;0;0;-1;0.00000000;0.00000000;0.00000000;0.00000000;0.00000000;0.00000000;0.00000000;
39014369;52;36.4;36.4;27.9;27.7;-74.7;-0.47;0;0.49;-0.12;0;0;0.8226;0.0253;40.8784;1.4648;519873;520995;315.613;0;28;0.053;0.047;39014266;0.8226;0.0253;40.8784;1.4648;1.017;230.469;0.01;0.08;0;7531;7547.26;1;39014214;0;0;0;0;0;0;0;0;0;-1;0.00000000;0.00000000;0.00000000;0.00000000;0.00000000;0.00000000;0.00000000;
39014427;52;36.4;36.4;28;27.7;-74.2;-0.4;0;0.47;-0.09;0;0;0.8226;0.0253;40.8784;1.4648;519873;520995;315.457;0;28;0.052;0.047;39014371;0.8226;0.0253;40.8784;1.4648;1.017;230.469;0;-0.1;0;7531;7547.26;1;39014405;0;0;0;0;0;0;0;0;0;-1;0.00000000;0.00000000;0.00000000;0.00000000;0.00000000;0.00000000;0.00000000;
39014472;52;36.4;36.5;27.8;27.6;-73.9;-0.39;0;0.46;-0.09;0;0;0.8226;0.0253;40.8784;1.4648;519873;520995;315.368;0;28;0.052;0.047;39014428;0.8226;0.0253;40.8784;1.4648;1.017;230.47;0;0.09;0;7531;7547.26;1;39014405;0;0;0;0;0;0;0;0;0;-1;0.00000000;0.00000000;0.00000000;0.00000000;0.00000000;0.00000000;0.00000000;
39014538;52;36.4;36.5;27.9;27.7;-74.1;-0.33;0;0.41;-0.07;0;0;0.8226;0.0253;40.8784;1.4648;519873;520995;315.512;0;28;0.05;0.047;39014473;0.8226;0.0253;40.8784;1.4648;1.017;230.47;0;-0.35;0;7531;7547.26;1;39014519;0;0;0;0;0;0;0;0;0;-1;0.00000000;0.00000000;0.00000000;0.00000000;0.00000000;0.00000000;0.00000000;
39014639;52;36.4;36.4;28;27.7;-73.2;-0.56;0;0.6;-0.13;0;0;0.8226;0.0253;40.8784;1.4648;519873;520995;315.653;0;28;0.052;0.047;39014551;0.8226;0.0253;40.8784;1.4648;1.017;230.471;0;0.26;0;7531;7547.26;1;39014583;0;0;0;0;0;0;0;0;0;-1;0.00000000;0.00000000;0.00000000;0.00000000;0.00000000;0.00000000;0.00000000;
39014724;52;36.4;36.4;27.9;27.7;-74.2;-0.36;0;0.42;-0.08;0;0;0.8226;0.0253;40.8784;1.4648;519873;520995;315.729;0;28;0.05;0.046;39014639;0.8226;0.0253;40.8784;1.4648;1.017;230.472;0;-0.6;0;7531;7547.26;1;39014679;0;0;0;0;0;0;0;0;0;-1;0.00000000;0.00000000;0.00000000;0.00000000;0.00000000;0.00000000;0.00000000;
39014768;52;36.4;36.4;28;27.7;-74.4;-0.34;0;0.41;-0.09;0;0;0.8226;0.0253;40.8784;1.4648;519873;520995;315.688;0;28;0.051;0.047;39014724;0.8226;0.0253;40.8784;1.4648;1.017;230.473;0;-0.31;0;7531;7547.26;1;39014679;0;0;0;0;0;0;0;0;0;-1;0.00000000;0.00000000;0.00000000;0.00000000;0.00000000;0.00000000;0.00000000;
39014846;52;36.4;36.4;27.9;27.7;-74.5;-0.32;0;0.38;-0.08;0;0;0.8226;0.0253;40.8784;1.4648;519873;520995;315.887;0;28;0.05;0.046;39014769;0.8226;0.0253;40.8784;1.4648;1.017;230.473;0;0.16;0;7531;7547.26;1;39014799;0;0;0;0;0;0;0;0;0;-1;0.00000000;0.00000000;0.00000000;0.00000000;0.00000000;0.00000000;0.00000000;
39014903;52;36.4;36.4;28;27.8;-74.7;-0.33;0;0.4;-0.08;0;0;0.8226;0.0253;40.8784;1.4648;519873;520995;315.846;0;28;0.052;0.046;39014846;0.8226;0.0253;40.8784;1.4648;1.017;230.474;0;-0.14;0;7531;7547.26;1;39014859;0;0;0;0;0;0;0;0;0;-1;0.00000000;0.00000000;0.00000000;0.00000000;0.00000000;0.00000000;0.00000000;
39014944;52;36.4;36.4;27.9;27.6;-74.7;-0.37;0;0.44;-0.07;0;0;0.8226;0.0253;40.8784;1.4648;519873;520995;316.024;0;28;0.05;0.047;39014908;0.8226;0.0253;40.8784;1.4648;1.017;230.474;0;-0.57;0;7531;7547.26;1;39014859;0;0;0;0;0;0;0;0;0;-1;0.00000000;0.00000000;0.00000000;0.00000000;0.00000000;0.00000000;0.00000000;
39015064;52;36.4;36.5;28;27.9;-73.6;-0.5;0;0.53;-0.12;0;0;0.8226;0.0253;40.8784;1.4648;519873;520995;316.068;0;28;0.051;0.046;39014908;0.8226;0.0253;40.8784;1.4648;1.017;230.474;0;-0.57;0;7531;7547.26;1;39014969;0;0;0;0;0;0;0;0;0;-1;0.00000000;0.00000000;0.00000000;0.00000000;0.00000000;0.00000000;0.00000000;
39015130;52;36.4;36.4;27.9;27.7;-73.8;-0.27;0;0.37;-0.07;0;0;0.8226;0.0253;40.8784;1.4648;519873;520995;316.181;0;28;0.051;0.046;39015064;0.8226;0.0253;40.8784;1.4648;1.017;230.475;0;-0.26;0;7531;7547.26;1;39015082;0;0;0;0;0;0;0;0;0;-1;0.00000000;0.00000000;0.00000000;0.00000000;0.00000000;0.00000000;0.00000000;
39015212;52;36.4;36.4;28;27.7;-73.8;-0.24;0;0.35;-0.06;0;0;0.8226;0.0253;40.8784;1.4648;519873;520995;316.167;0;28;0.053;0.046;39015130;0.8226;0.0253;40.8784;1.4648;1.017;230.476;0;-0.28;0;7531;7547.26;1;39015147;0;0;0;0;0;0;0;0;0;-1;0.00000000;0.00000000;0.00000000;0.00000000;0.00000000;0.00000000;0.00000000;
39015280;52;36.4;36.5;28;27.8;-74.4;-0.31;0;0.38;-0.08;0;0;0.8226;0.0253;40.8784;1.4648;519873;520995;316.004;0;28;0.052;0.046;39015213;0.8226;0.0253;40.8784;1.4648;1.017;230.477;0;0.16;0;7531;7547.26;1;39015246;0;0;0;0;0;0;0;0;0;-1;0.00000000;0.00000000;0.00000000;0.00000000;0.00000000;0.00000000;0.00000000;
39015325;52;36.4;36.4;28;27.7;-74.7;-0.17;0;0.25;-0.03;0;0;0.8226;0.0253;40.8784;1.4648;519873;520995;315.911;0;28;0.05;0.046;39015281;0.8226;0.0253;40.8784;1.4648;1.017;230.477;0;0.14;0;7531;7547.26;1;39015302;0;0;0;0;0;0;0;0;0;-1;0.00000000;0.00000000;0.00000000;0.00000000;0.00000000;0.00000000;0.00000000;
39015415;52;36.4;36.5;28;27.8;-75.1;-0.32;0;0.38;-0.07;0;0;0.8226;0.0253;40.8784;1.4648;519873;520995;315.738;0;28;0.051;0.047;39015327;0.8226;0.0253;40.8784;1.4648;1.017;230.477;0;-0.03;0;7531;7547.26;1;39015370;0;0;0;0;0;0;0;0;0;-1;0.00000000;0.00000000;0.00000000;0.00000000;0.00000000;0.00000000;0.00000000;
39015483;52;36.4;36.4;27.8;27.6;-75.3;-0.33;0;0.42;-0.08;0;0;0.8226;0.0253;40.8784;1.4648;519873;520995;315.678;0;28;0.051;0.047;39015417;0.8226;0.0253;40.8784;1.4648;1.017;230.477;0;0.11;0;7531;7547.26;1;39015439;0;0;0;0;0;0;0;0;0;-1;0.00000000;0.00000000;0.00000000;0.00000000;0.00000000;0.00000000;0.00000000;
39015572;52;36.4;36.6;28;27.8;-74.9;-0.41;0;0.44;-0.1;0;0;0.8226;0.0253;40.8784;1.4648;519873;520995;315.446;0;28;0.051;0.046;39015484;0.8226;0.0253;40.8784;1.4648;1.017;230.477;0;0.3;0;7531;7547.26;1;39015510;0;0;0;0;0;0;0;0;0;-1;0.00000000;0.00000000;0.00000000;0.00000000;0.00000000;0.00000000;0.00000000;
39015643;52;36.4;36.4;28;27.7;-75.1;-0.28;0;0.37;-0.05;0;0;0.8226;0.0253;40.8784;1.4648;519873;520995;315.299;0;28;0.05;0.047;39015573;0.8226;0.0253;40.8784;1.4648;1.017;230.477;0;-0.34;0;7531;7547.26;1;39015594;0;0;0;0;0;0;0;0;0;-1;0.00000000;0.00000000;0.00000000;0.00000000;0.00000000;0.00000000;0.00000000;
39015708;52;36.4;36.4;28;27.8;-75.2;-0.2;0;0.3;-0.03;0;0;0.8226;0.0253;40.8784;1.4648;519873;520995;315.303;0;28;0.05;0.047;39015643;0.8226;0.0253;40.8784;1.4648;1.017;230.477;0;0.21;0;7531;7547.26;1;39015663;0;0;0;0;0;0;0;0;0;-1;0.00000000;0.00000000;0.00000000;0.00000000;0.00000000;0.00000000;0.00000000;
39015781;52;36.4;36.4;28.1;27.8;-74.6;-0.42;0;0.52;-0.09;0;0;0.8226;0.0253;40.8784;1.4648;519873;520995;315.091;0;28;0.052;0.046;39015709;0.8226;0.0253;40.8784;1.4648;1.017;230.477;0;0.18;0;7531;7547.26;1;39015743;0;0;0;0;0;0;0;0;0;-1;0.00000000;0.00000000;0.00000000;0.00000000;0.00000000;0.00000000;0.00000000;
39015823;52;36.4;36.4;27.9;27.7;-74.1;-0.27;0;0.37;-0.06;0;0;0.8226;0.0253;40.8784;1.4648;519873;520995;315.064;0;28;0.051;0.047;39015781;0.8226;0.0253;40.8784;1.4648;1.017;230.477;0;0.08;0;7531;7547.26;1;39015743;0;0;0;0;0;0;0;0;0;-1;0.00000000;0.00000000;0.00000000;0.00000000;0.00000000;0.00000000;0.00000000;
39015898;52;36.4;36.4;27.9;27.7;-73.7;-0.34;0;0.41;-0.08;0;0;0.8226;0.0253;40.8784;1.4648;519873;520995;315.007;0;28;0.051;0.047;39015824;0.8226;0.0253;40.8784;1.4648;1.017;230.478;-0.01;0.59;0;7531;7547.26;1;39015852;0;0;0;0;0;0;0;0;0;-1;0.00000000;0.00000000;0.00000000;0.00000000;0.00000000;0.00000000;0.00000000;
39015938;52;36.4;36.4;28;27.7;-74.3;-0.26;0;0.39;-0.05;0;0;0.8226;0.0253;40.8784;1.4648;519873;520995;315.165;0;28;0.05;0.047;39015899;0.8226;0.0253;40.8784;1.4648;1.017;230.478;0;0.1;0;7531;7547.26;1;39015852;0;0;0;0;0;0;0;0;0;-1;0.00000000;0.00000000;0.00000000;0.00000000;0.00000000;0.00000000;0.00000000;
39016007;52;36.4;36.5;27.9;27.7;-74.5;-0.29;0;0.4;-0.06;0;0;0.8226;0.0253;40.8784;1.4648;519873;520995;315.206;0;28;0.051;0.047;39015939;0.8226;0.0253;40.8784;1.4648;1.017;230.478;0;-0.4;0;7531;7547.26;1;39015970;0;0;0;0;0;0;0;0;0;-1;0.00000000;0.00000000;0.00000000;0.00000000;0.00000000;0.00000000;0.00000000;
39016047;52;36.4;36.4;28;27.8;-74.7;-0.27;0;0.36;-0.05;0;0;0.8226;0.0253;40.8784;1.4648;519873;520995;315.077;0;28;0.051;0.046;39016008;0.8226;0.0253;40.8784;1.4648;1.017;230.478;0;-0.31;0;7531;7547.26;1;39015970;0;0;0;0;0;0;0;0;0;-1;0.00000000;0.00000000;0.00000000;0.00000000;0.00000000;0.00000000;0.00000000;
39016126;52;36.4;36.4;28;27.8;-75.2;-0.3;0;0.38;-0.07;0;0;0.8226;0.0253;40.8784;1.4648;519873;520995;315.064;0;28;0.05;0.047;39016048;0.8226;0.0253;40.8784;1.4648;1.017;230.479;-0.01;0.46;0;7531;7547.26;1;39016073;0;0;0;0;0;0;0;0;0;-1;0.00000000;0.00000000;0.00000000;0.00000000;0.00000000;0.00000000;0.00000000;
39016223;52;36.4;36.4;28;27.8;-75.1;-0.26;0;0.35;-0.05;0;0;0.8226;0.0253;40.8784;1.4648;519873;520995;315.074;0;28;0.051;0.047;39016126;0.8226;0.0253;40.8784;1.4648;1.017;230.479;0;0.43;0;7531;7547.26;1;39016161;0;0;0;0;0;0;0;0;0;-1;0.00000000;0.00000000;0.00000000;0.00000000;0.00000000;0.00000000;0.00000000;
39016295;52;36.4;36.5;28;27.7;-75.2;-0.26;0;0.39;-0.06;0;0;0.8226;0.0253;40.8784;1.4648;519873;520995;315.106;0;28;0.051;0.047;39016225;0.8226;0.0253;40.8784;1.4648;1.017;230.479;0;0.06;0;7531;7547.26;1;39016235;0;0;0;0;0;0;0;0;0;-1;0.00000000;0.00000000;0.00000000;0.00000000;0.00000000;0.00000000;0.00000000;
39016362;52;36.4;36.4;28;27.7;-74.3;-0.48;0;0.54;-0.11;0;0;0.8226;0.0253;40.8784;1.4648;519873;520995;315.066;0;28;0.052;0.047;39016296;0.8226;0.0253;40.8784;1.4648;1.017;230.479;0;-0.14;0;7531;7547.26;1;39016346;0;0;0;0;0;0;0;0;0;-1;0.00000000;0.00000000;0.00000000;0.00000000;0.00000000;0.00000000;0.00000000;
39016429;52;36.4;36.4;28;27.7;-74.3;-0.51;0;0.57;-0.1;0;0;0.8226;0.0253;40.8784;1.4648;519873;520995;315.107;0;28;0.052;0.047;39016393;0.8226;0.0253;40.8784;1.4648;1.017;230.48;0;-0.12;0;7531;7547.26;1;39016346;0;0;0;0;0;0;0;0;0;-1;0.00000000;0.00000000;0.00000000;0.00000000;0.00000000;0.00000000;0.00000000;
39016506;52;36.4;36.4;27.9;27.7;-73.9;-0.47;0;0.52;-0.1;0;0;0.8226;0.0253;40.8784;1.4648;519873;520995;315.189;0;28;0.051;0.047;39016458;0.8226;0.0253;40.8784;1.4648;1.017;230.481;0;-0.25;0;7531;7547.26;1;39016429;0;0;0;0;0;0;0;0;0;-1;0.00000000;0.00000000;0.00000000;0.00000000;0.00000000;0.00000000;0.00000000;
39016572;52;36.4;36.4;28;27.7;-74.2;-0.39;0;0.46;-0.09;0;0;0.8226;0.0253;40.8784;1.4648;519873;520995;315.094;0;28;0.052;0.047;39016507;0.8226;0.0253;40.8784;1.4648;1.017;230.482;0;0.3;0;7531;7547.26;1;39016523;0;0;0;0;0;0;0;0;0;-1;0.00000000;0.00000000;0.00000000;0.00000000;0.00000000;0.00000000;0.00000000;
39016655;52;36.4;36.6;28;27.8;-73.5;-0.43;0;0.51;-0.09;0;0;0.8226;0.0253;40.8784;1.4648;519873;520995;315.142;0;28;0.051;0.047;39016572;0.8226;0.0253;40.8784;1.4648;1.017;230.482;0;-0.09;0;7531;7547.26;1;39016589;0;0;0;0;0;0;0;0;0;-1;0.00000000;0.00000000;0.00000000;0.00000000;0.00000000;0.00000000;0.00000000;
39016733;52;36.4;36.5;28;27.7;-73.4;-0.52;0;0.55;-0.12;0;0;0.8226;0.0253;40.8784;1.4648;519873;520995;315.073;0;28;0.051;0.047;39016656;0.8226;0.0253;40.8784;1.4648;1.017;230.483;0;-0.45;0;7531;7547.26;1;39016674;0;0;0;0;0;0;0;0;0;-1;0.00000000;0.00000000;0.00000000;0.00000000;0.00000000;0.00000000;0.00000000;
39016827;52;36.4;36.6;28;27.8;-73.2;-0.56;0;0.59;-0.12;0;0;0.8226;0.0253;40.8784;1.4648;519873;520995;315.254;0;28;0.051;0.047;39016734;0.8226;0.0253;40.8784;1.4648;1.017;230.483;0;-0.31;0;7531;7547.26;1;39016754;0;0;0;0;0;0;0;0;0;-1;0.00000000;0.00000000;0.00000000;0.00000000;0.00000000;0.00000000;0.00000000;
39016883;52;36.4;36.5;28;27.7;-73.3;-0.38;0;0.44;-0.08;0;0;0.8226;0.0253;40.8784;1.4648;519873;520995;315.066;0;28;0.052;0.047;39016829;0.8226;0.0253;40.8784;1.4648;1.017;230.483;0;0.39;0;7531;7547.26;1;39016840;0;0;0;0;0;0;0;0;0;-1;0.00000000;0.00000000;0.00000000;0.00000000;0.00000000;0.00000000;0.00000000;
39016984;52;36.4;36.5;27.9;27.7;-73.9;-0.37;0;0.44;-0.09;0;0;0.8226;0.0253;40.8784;1.4648;519873;520995;315.116;0;28;0.051;0.047;39016883;0.8226;0.0253;40.8784;1.4648;1.017;230.484;0;-0.17;0;7531;7547.26;1;39016917;0;0;0;0;0;0;0;0;0;-1;0.00000000;0.00000000;0.00000000;0.00000000;0.00000000;0.00000000;0.00000000;
39017067;52;36.4;36.3;27.8;27.6;-73.8;-0.26;0;0.4;-0.05;0;0;0.8226;0.0253;40.8784;1.4648;519873;520995;315.036;0;28;0.052;0.047;39016985;0.8226;0.0253;40.8784;1.4648;1.017;230.485;0;0.28;0;7531;7547.26;1;39016994;0;0;0;0;0;0;0;0;0;-1;0.00000000;0.00000000;0.00000000;0.00000000;0.00000000;0.00000000;0.00000000;
39017125;52;36.4;36.4;28;27.7;-73.7;-0.38;0;0.48;-0.08;0;0;0.8226;0.0253;40.8784;1.4648;519873;520995;315.094;0;28;0.052;0.047;39017068;0.8226;0.0253;40.8784;1.4648;1.017;230.486;0;-0.2;0;7531;7547.26;1;39017081;0;0;0;0;0;0;0;0;0;-1;0.00000000;0.00000000;0.00000000;0.00000000;0.00000000;0.00000000;0.00000000;
39017237;52;36.4;36.5;28;27.8;-73.5;-0.45;0;0.48;-0.11;0;0;0.8226;0.0253;40.8784;1.4648;519873;520995;315.138;0;28;0.051;0.047;39017126;0.8226;0.0253;40.8784;1.4648;1.017;230.486;0;-0.22;0;7531;7547.26;1;39017163;0;0;0;0;0;0;0;0;0;-1;0.00000000;0.00000000;0.00000000;0.00000000;0.00000000;0.00000000;0.00000000;
39017332;52;36.4;36.4;27.8;27.6;-73.6;-0.36;0;0.47;-0.08;0;0;0.8226;0.0253;40.8784;1.4648;519873;520995;315.101;0;28;0.052;0.047;39017237;0.8226;0.0253;40.8784;1.4648;1.017;230.486;0;-0.04;0;7531;7547.26;1;39017253;0;0;0;0;0;0;0;0;0;-1;0.00000000;0.00000000;0.00000000;0.00000000;0.00000000;0.00000000;0.00000000;
39017401;52;36.4;36.5;28;27.7;-73.8;-0.31;0;0.41;-0.07;0;0;0.8226;0.0253;40.8784;1.4648;519873;520995;315.042;0;28;0.051;0.047;39017333;0.8226;0.0253;40.8784;1.4648;1.017;230.487;0;-0.22;0;7531;7547.26;1;39017349;0;0;0;0;0;0;0;0;0;-1;0.00000000;0.00000000;0.00000000;0.00000000;0.00000000;0.00000000;0.00000000;
39017467;52;36.4;36.5;27.9;27.7;-74;-0.37;0;0.44;-0.08;0;0;0.8226;0.0253;40.8784;1.4648;519873;520995;315.176;0;28;0.05;0.047;39017401;0.8226;0.0253;40.8784;1.4648;1.017;230.487;0;0.2;0;7531;7547.26;1;39017427;0;0;0;0;0;0;0;0;0;-1;0.00000000;0.00000000;0.00000000;0.00000000;0.00000000;0.00000000;0.00000000;
39017513;52;36.4;36.4;28;27.7;-74.1;-0.35;0;0.42;-0.08;0;0;0.8226;0.0253;40.8784;1.4648;519873;520995;315.058;0;28;0.051;0.047;39017467;0.8226;0.0253;40.8784;1.4648;1.017;230.488;0.01;-0.13;0;7531;7547.26;1;39017427;0;0;0;0;0;0;0;0;0;-1;0.00000000;0.00000000;0.00000000;0.00000000;0.00000000;0.00000000;0.00000000;
39017579;52;36.4;36.4;27.9;27.6;-74.1;-0.32;0;0.42;-0.07;0;0;0.8226;0.0253;40.8784;1.4648;519873;520995;315.051;0;28;0.051;0.047;39017513;0.8226;0.0253;40.8784;1.4648;1.017;230.488;0;-0.12;0;7531;7547.26;1;39017543;0;0;0;0;0;0;0;0;0;-1;0.00000000;0.00000000;0.00000000;0.00000000;0.00000000;0.00000000;0.00000000;
39017644;52;36.4;36.5;27.9;27.7;-74;-0.36;0;0.43;-0.08;0;0;0.8226;0.0253;40.8784;1.4648;519873;520995;315.032;0;28;0.051;0.047;39017579;0.8226;0.0253;40.8784;1.4648;1.017;230.489;0;0.05;0;7531;7547.26;1;39017609;0;0;0;0;0;0;0;0;0;-1;0.00000000;0.00000000;0.00000000;0.00000000;0.00000000;0.00000000;0.00000000;
39017713;52;36.4;36.4;28;27.7;-74;-0.29;0;0.46;-0.06;0;0;0.8226;0.0253;40.8784;1.4648;519873;520995;315.104;0;28;0.051;0.047;39017644;0.8226;0.0253;40.8784;1.4648;1.017;230.489;0;-0.54;0;7531;7547.26;1;39017666;0;0;0;0;0;0;0;0;0;-1;0.00000000;0.00000000;0.00000000;0.00000000;0.00000000;0.00000000;0.00000000;
39017783;52;36.4;36.4;28;27.7;-73.9;-0.42;0;0.49;-0.09;0;0;0.8226;0.0253;40.8784;1.4648;519873;520995;315.228;0;28;0.05;0.047;39017713;0.8226;0.0253;40.8784;1.4648;1.017;230.489;0;-0.27;0;7531;7547.26;1;39017743;0;0;0;0;0;0;0;0;0;-1;0.00000000;0.00000000;0.00000000;0.00000000;0.00000000;0.00000000;0.00000000;
39017846;52;36.4;36.5;27.8;27.7;-74.1;-0.46;0;0.51;-0.11;0;0;0.8226;0.0253;40.8784;1.4648;519873;520995;315.134;0;28;0.052;0.047;39017784;0.8226;0.0253;40.8784;1.4648;1.017;230.49;0;-0.41;0;7531;7547.26;1;39017807;0;0;0;0;0;0;0;0;0;-1;0.00000000;0.00000000;0.00000000;0.00000000;0.00000000;0.00000000;0.00000000;
39017982;52;36.4;36.6;28.1;27.8;-74.2;-0.44;0;0.48;-0.1;0;0;0.8226;0.0253;40.8784;1.4648;519873;520995;315.339;0;28;0.051;0.048;39017854;0.8226;0.0253;40.8784;1.4648;1.017;230.491;0;-0.34;0;7531;7547.26;1;39017874;0;0;0;0;0;0;0;0;0;-1;0.00000000;0.00000000;0.00000000;0.00000000;0.00000000;0.00000000;0.00000000;
39018055;52;36.4;36.4;27.9;27.7;-74.9;-0.46;0;0.51;-0.1;0;0;0.8226;0.0253;40.8784;1.4648;519873;520995;315.664;0;28;0.051;0.047;39017983;0.8226;0.0253;40.8784;1.4648;1.017;230.491;0;-0.43;0;7531;7547.26;1;39018004;0;0;0;0;0;0;0;0;0;-1;0.00000000;0.00000000;0.00000000;0.00000000;0.00000000;0.00000000;0.00000000;
39018115;52;36.4;36.4;27.9;27.6;-74.8;-0.37;0;0.43;-0.08;0;0;0.8226;0.0253;40.8784;1.4648;519873;520995;315.815;0;28;0.051;0.047;39018056;0.8226;0.0253;40.8784;1.4648;1.017;230.492;0;-0.3;0;7531;7547.26;1;39018071;0;0;0;0;0;0;0;0;0;-1;0.00000000;0.00000000;0.00000000;0.00000000;0.00000000;0.00000000;0.00000000;
39018169;52;36.4;36.4;27.9;27.6;-75;-0.43;0;0.47;-0.1;0;0;0.8226;0.0253;40.8784;1.4648;519873;520995;315.805;0;28;0.052;0.046;39018139;0.8226;0.0253;40.8784;1.4648;1.017;230.492;0;-0.69;0;7531;7547.26;1;39018139;0;0;0;0;0;0;0;0;0;-1;0.00000000;0.00000000;0.00000000;0.00000000;0.00000000;0.00000000;0.00000000;
39018211;52;36.4;36.4;27.7;27.4;-74.8;-0.36;0;0.43;-0.07;0;0;0.8226;0.0253;40.8784;1.4648;519873;520995;315.794;0;28;0.051;0.046;39018139;0.8226;0.0253;40.8784;1.4648;1.017;230.492;0;-0.69;0;7531;7547.26;1;39018139;0;0;0;0;0;0;0;0;0;-1;0.00000000;0.00000000;0.00000000;0.00000000;0.00000000;0.00000000;0.00000000;
39018281;52;36.4;36.4;27.8;27.6;-74.9;-0.29;0;0.39;-0.07;0;0;0.8226;0.0253;40.8784;1.4648;519873;520995;315.863;0;28;0.051;0.046;39018211;0.8226;0.0253;40.8784;1.4648;1.017;230.493;0;-0.64;0;7531;7547.26;1;39018231;0;0;0;0;0;0;0;0;0;-1;0.00000000;0.00000000;0.00000000;0.00000000;0.00000000;0.00000000;0.00000000;
39018320;52;36.4;36.3;27.9;27.7;-74.7;-0.34;0;0.38;-0.09;0;0;0.8226;0.0253;40.8784;1.4648;519873;520995;315.784;0;28;0.051;0.046;39018281;0.8226;0.0253;40.8784;1.4648;1.017;230.493;0;0.16;0;7531;7547.26;1;39018304;0;0;0;0;0;0;0;0;0;-1;0.00000000;0.00000000;0.00000000;0.00000000;0.00000000;0.00000000;0.00000000;
39018365;52;36.4;36.4;28;27.7;-74.9;-0.36;0;0.44;-0.08;0;0;0.8226;0.0253;40.8784;1.4648;519873;520995;315.634;0;28;0.052;0.046;39018320;0.8226;0.0253;40.8784;1.4648;1.017;230.494;0;-0.27;0;7531;7547.26;1;39018304;0;0;0;0;0;0;0;0;0;-1;0.00000000;0.00000000;0.00000000;0.00000000;0.00000000;0.00000000;0.00000000;
39018436;52;36.4;36.5;28;27.7;-74.9;-0.2;0;0.32;-0.04;0;0;0.8226;0.0253;40.8784;1.4648;519873;520995;315.249;0;28;0.052;0.047;39018365;0.8226;0.0253;40.8784;1.4648;1.017;230.494;0;0.17;0;7531;7547.26;1;39018385;0;0;0;0;0;0;0;0;0;-1;0.00000000;0.00000000;0.00000000;0.00000000;0.00000000;0.00000000;0.00000000;
39018484;52;36.4;36.3;27.8;27.6;-74.9;-0.23;0;0.36;-0.05;0;0;0.8226;0.0253;40.8784;1.4648;519873;520995;315.166;0;28;0.051;0.047;39018436;0.8226;0.0253;40.8784;1.4648;1.017;230.494;0;0.36;0;7531;7547.26;1;39018463;0;0;0;0;0;0;0;0;0;-1;0.00000000;0.00000000;0.00000000;0.00000000;0.00000000;0.00000000;0.00000000;
39018521;52;36.4;36.5;27.9;27.6;-74.9;-0.29;0;0.38;-0.07;0;0;0.8226;0.0253;40.8784;1.4648;519873;520995;315.133;0;28;0.051;0.046;39018484;0.8226;0.0253;40.8784;1.4648;1.017;230.496;0;0.1;0;7531;7547.26;1;39018463;0;0;0;0;0;0;0;0;0;-1;0.00000000;0.00000000;0.00000000;0.00000000;0.00000000;0.00000000;0.00000000;
39018592;52;36.4;36.4;28;27.8;-75.4;-0.23;0;0.36;-0.05;0;0;0.8226;0.0253;40.8784;1.4648;519873;520995;315.116;0;28;0.052;0.046;39018523;0.8226;0.0253;40.8784;1.4648;1.017;230.496;0;-0.74;0;7531;7547.26;1;39018542;0;0;0;0;0;0;0;0;0;-1;0.00000000;0.00000000;0.00000000;0.00000000;0.00000000;0.00000000;0.00000000;
39018643;52;36.4;36.3;27.8;27.6;-74.9;-0.38;0;0.45;-0.08;0;0;0.8226;0.0253;40.8784;1.4648;519873;520995;315.086;0;28;0.05;0.046;39018593;0.8226;0.0253;40.8784;1.4648;1.017;230.496;0;-0.5;0;7531;7547.26;1;39018610;0;0;0;0;0;0;0;0;0;-1;0.00000000;0.00000000;0.00000000;0.00000000;0.00000000;0.00000000;0.00000000;
39018708;52;36.4;36.4;27.8;27.5;-74;-0.35;0;0.45;-0.08;0;0;0.8226;0.0253;40.8784;1.4648;519873;520995;315.026;0;28;0.051;0.046;39018643;0.8226;0.0253;40.8784;1.4648;1.017;230.497;0;-0.07;0;7531;7547.26;1;39018679;0;0;0;0;0;0;0;0;0;-1;0.00000000;0.00000000;0.00000000;0.00000000;0.00000000;0.00000000;0.00000000;
39018757;52;36.4;36.4;27.8;27.6;-73.9;-0.58;0;0.6;-0.14;0;0;0.8226;0.0253;40.8784;1.4648;519873;520995;315.083;0;28;0.052;0.046;39018708;0.8226;0.0253;40.8784;1.4648;1.017;230.497;0;-0.35;0;7531;7547.26;1;39018679;0;0;0;0;0;0;0;0;0;-1;0.00000000;0.00000000;0.00000000;0.00000000;0.00000000;0.00000000;0.00000000;
39018820;52;36.4;36.4;27.9;27.6;-73.7;-0.48;0;0.55;-0.11;0;0;0.8226;0.0253;40.8784;1.4648;519873;520995;315.027;0;28;0.052;0.047;39018758;0.8226;0.0253;40.8784;1.4648;1.017;230.498;0;-0.39;0;7531;7547.26;1;39018773;0;0;0;0;0;0;0;0;0;-1;0.00000000;0.00000000;0.00000000;0.00000000;0.00000000;0.00000000;0.00000000;
39018887;52;36.4;36.3;27.9;27.6;-74;-0.53;0;0.6;-0.13;0;0;0.8226;0.0253;40.8784;1.4648;519873;520995;315.103;0;28;0.051;0.046;39018843;0.8226;0.0253;40.8784;1.4648;1.017;230.498;0;-0.37;0;7531;7547.26;1;39018843;0;0;0;0;0;0;0;0;0;-1;0.00000000;0.00000000;0.00000000;0.00000000;0.00000000;0.00000000;0.00000000;
39018952;52;36.4;36.4;27.8;27.6;-74;-0.39;0;0.47;-0.08;0;0;0.8226;0.0253;40.8784;1.4648;519873;520995;315.065;0;28;0.052;0.046;39018907;0.8226;0.0253;40.8784;1.4648;1.017;230.499;0;-0.8;0;7531;7547.26;1;39018907;0;0;0;0;0;0;0;0;0;-1;0.00000000;0.00000000;0.00000000;0.00000000;0.00000000;0.00000000;0.00000000;
39019024;52;36.4;36.5;28;27.8;-73.4;-0.54;0;0.57;-0.12;0;0;0.8226;0.0253;40.8784;1.4648;519873;520995;315.063;0;28;0.053;0.046;39018952;0.8226;0.0253;40.8784;1.4648;1.017;230.5;0;-0.13;0;7531;7547.26;1;39018973;0;0;0;0;0;0;0;0;0;-1;0.00000000;0.00000000;0.00000000;0.00000000;0.00000000;0.00000000;0.00000000;
39019092;52;36.4;36.4;27.9;27.6;-72.8;-0.59;0;0.64;-0.11;0;0;0.8226;0.0253;40.8784;1.4648;519873;520995;315.048;0;28;0.052;0.046;39019025;0.8226;0.0253;40.8784;1.4648;1.017;230.5;-0.01;-0.52;0;7531;7547.26;1;39019038;0;0;0;0;0;0;0;0;0;-1;0.00000000;0.00000000;0.00000000;0.00000000;0.00000000;0.00000000;0.00000000;
39019151;52;36.4;36.6;27.9;27.7;-72.5;-0.56;0;0.6;-0.12;0;0;0.8226;0.0253;40.8784;1.4648;519873;520995;315.122;0;28;0.051;0.047;39019092;0.8226;0.0253;40.8784;1.4648;1.017;230.501;0;-0.45;0;7531;7547.26;1;39019105;0;0;0;0;0;0;0;0;0;-1;0.00000000;0.00000000;0.00000000;0.00000000;0.00000000;0.00000000;0.00000000;
39019227;52;36.4;36.4;28;27.7;-72.8;-0.58;0;0.59;-0.12;0;0;0.8226;0.0253;40.8784;1.4648;519873;520995;315.056;0;28;0.052;0.046;39019152;0.8226;0.0253;40.8784;1.4648;1.017;230.502;0;-0.45;0;7531;7547.26;1;39019178;0;0;0;0;0;0;0;0;0;-1;0.00000000;0.00000000;0.00000000;0.00000000;0.00000000;0.00000000;0.00000000;
39019286;52;36.4;36.5;28;27.7;-72.6;-0.49;0;0.59;-0.11;0;0;0.8226;0.0253;40.8784;1.4648;519873;520995;315.051;0;28;0.052;0.046;39019228;0.8226;0.0253;40.8784;1.4648;1.017;230.503;0;-0.17;0;7531;7547.26;1;39019250;0;0;0;0;0;0;0;0;0;-1;0.00000000;0.00000000;0.00000000;0.00000000;0.00000000;0.00000000;0.00000000;
39019360;52;36.4;36.6;28;27.8;-73.6;-0.39;0;0.49;-0.09;0;0;0.8226;0.0253;40.8784;1.4648;519873;520995;315.079;0;28;0.052;0.046;39019286;0.8226;0.0253;40.8784;1.4648;1.017;230.504;0;-0.7;0;7531;7547.26;1;39019308;0;0;0;0;0;0;0;0;0;-1;0.00000000;0.00000000;0.00000000;0.00000000;0.00000000;0.00000000;0.00000000;
39019422;52;36.4;36.4;27.9;27.7;-73.6;-0.32;0;0.39;-0.07;0;0;0.8226;0.0253;40.8784;1.4648;519873;520995;315.107;0;28;0.052;0.046;39019361;0.8226;0.0253;40.8784;1.4648;1.017;230.504;0;-0.24;0;7531;7547.26;1;39019383;0;0;0;0;0;0;0;0;0;-1;0.00000000;0.00000000;0.00000000;0.00000000;0.00000000;0.00000000;0.00000000;
39019467;52;36.4;36.4;27.8;27.6;-74.3;-0.51;0;0.56;-0.11;0;0;0.8226;0.0253;40.8784;1.4648;519873;520995;315.114;0;28;0.051;0.046;39019422;0.8226;0.0253;40.8784;1.4648;1.017;230.505;0;-0.31;0;7531;7547.26;1;39019448;0;0;0;0;0;0;0;0;0;-1;0.00000000;0.00000000;0.00000000;0.00000000;0.00000000;0.00000000;0.00000000;
39019512;52;36.4;36.4;27.9;27.6;-74.8;-0.55;0;0.61;-0.11;0;0;0.8226;0.0253;40.8784;1.4648;519873;520995;315.096;0;28;0.052;0.047;39019467;0.8226;0.0253;40.8784;1.4648;1.017;230.505;0;0.03;0;7531;7547.26;1;39019448;0;0;0;0;0;0;0;0;0;-1;0.00000000;0.00000000;0.00000000;0.00000000;0.00000000;0.00000000;0.00000000;
39019585;52;36.4;36.4;27.8;27.6;-74.9;-0.54;0;0.57;-0.12;0;0;0.8226;0.0253;40.8784;1.4648;519873;520995;315.121;0;28;0.052;0.047;39019512;0.8226;0.0253;40.8784;1.4648;1.017;230.505;0;0.24;0;7531;7547.26;1;39019536;0;0;0;0;0;0;0;0;0;-1;0.00000000;0.00000000;0.00000000;0.00000000;0.00000000;0.00000000;0.00000000;
39019652;52;36.4;36.4;28;27.7;-74.1;-0.69;0;0.69;-0.15;0;0;0.8226;0.0253;40.8784;1.4648;519873;520995;315.147;0;28;0.051;0.047;39019585;0.8226;0.0253;40.8784;1.4648;1.017;230.505;0;-0.44;0;7531;7547.26;1;39019626;0;0;0;0;0;0;0;0;0;-1;0.00000000;0.00000000;0.00000000;0.00000000;0.00000000;0.00000000;0.00000000;
39019697;52;36.4;36.6;27.9;27.7;-73.5;-0.75;0;0.73;-0.17;0;0;0.8226;0.0253;40.8784;1.4648;519873;520995;315.096;0;28;0.053;0.046;39019652;0.8226;0.0253;40.8784;1.4648;1.017;230.506;0;-0.54;0;7531;7547.26;1;39019626;0;0;0;0;0;0;0;0;0;-1;0.00000000;0.00000000;0.00000000;0.00000000;0.00000000;0.00000000;0.00000000;
39019762;52;36.4;36.4;27.8;27.6;-74.1;-0.45;0;0.51;-0.1;0;0;0.8226;0.0253;40.8784;1.4648;519873;520995;315.084;0;28;0.051;0.046;39019698;0.8226;0.0253;40.8784;1.4648;1.017;230.506;0;-0.33;0;7531;7547.26;1;39019712;0;0;0;0;0;0;0;0;0;-1;0.00000000;0.00000000;0.00000000;0.00000000;0.00000000;0.00000000;0.00000000;
39019805;52;36.4;36.4;27.9;27.7;-74.5;-0.44;0;0.5;-0.1;0;0;0.8226;0.0253;40.8784;1.4648;519873;520995;315.1;0;28;0.051;0.046;39019763;0.8226;0.0253;40.8784;1.4648;1.017;230.507;0;0.46;0;7531;7547.26;1;39019786;0;0;0;0;0;0;0;0;0;-1;0.00000000;0.00000000;0.00000000;0.00000000;0.00000000;0.00000000;0.00000000;
39019854;52;36.4;36.3;27.7;27.5;-74.7;-0.5;0;0.51;-0.12;0;0;0.8226;0.0253;40.8784;1.4648;519873;520995;315.052;0;28;0.052;0.047;39019830;0.8226;0.0253;40.8784;1.4648;1.017;230.507;0;-0.34;0;7531;7547.26;1;39019786;0;0;0;0;0;0;0;0;0;-1;0.00000000;0.00000000;0.00000000;0.00000000;0.00000000;0.00000000;0.00000000;
39019902;52;36.4;36.5;27.8;27.6;-74.8;-0.3;0;0.4;-0.07;0;0;0.8226;0.0253;40.8784;1.4648;519873;520995;315.015;0;28;0.051;0.047;39019830;0.8226;0.0253;40.8784;1.4648;1.017;230.507;0;-0.34;0;7531;7547.26;1;39019854;0;0;0;0;0;0;0;0;0;-1;0.00000000;0.00000000;0.00000000;0.00000000;0.00000000;0.00000000;0.00000000;
39019940;52;36.4;36.4;27.9;27.6;-74.9;-0.27;0;0.4;-0.06;0;0;0.8226;0.0253;40.8784;1.4648;519873;520995;315.081;0;28;0.051;0.046;39019914;0.8226;0.0253;40.8784;1.4648;1.017;230.508;0;-0.54;0;7531;7547.26;1;39019916;0;0;0;0;0;0;0;0;0;-1;0.00000000;0.00000000;0.00000000;0.00000000;0.00000000;0.00000000;0.00000000;
39020011;52;36.4;36.4;27.9;27.7;-74.7;-0.38;0;0.43;-0.08;0;0;0.8226;0.0253;40.8784;1.4648;519873;520995;315.093;0;28;0.051;0.047;39019987;0.8226;0.0253;40.8784;1.4648;1.017;230.509;0;-0.46;0;7531;7547.26;1;39019988;0;0;0;0;0;0;0;0;0;-1;0.00000000;0.00000000;0.00000000;0.00000000;0.00000000;0.00000000;0.00000000;
39020057;52;36.4;36.4;27.9;27.7;-74.5;-0.31;0;0.41;-0.07;0;0;0.8226;0.0253;40.8784;1.4648;519873;520995;315.084;0;28;0.052;0.046;39019987;0.8226;0.0253;40.8784;1.4648;1.017;230.509;0;-0.46;0;7531;7547.26;1;39019988;0;0;0;0;0;0;0;0;0;-1;0.00000000;0.00000000;0.00000000;0.00000000;0.00000000;0.00000000;0.00000000;
39020127;52;36.4;36.5;27.9;27.7;-73.5;-0.63;0;0.67;-0.12;0;0;0.8226;0.0253;40.8784;1.4648;519873;520995;315.042;0;28;0.053;0.047;39020057;0.8226;0.0253;40.8784;1.4648;1.017;230.51;0;-0.97;0;7531;7547.26;1;39020071;0;0;0;0;0;0;0;0;0;-1;0.00000000;0.00000000;0.00000000;0.00000000;0.00000000;0.00000000;0.00000000;
39020190;52;36.4;36.5;28;27.7;-74.3;-0.29;0;0.37;-0.06;0;0;0.8226;0.0253;40.8784;1.4648;519873;520995;315.062;0;28;0.051;0.048;39020128;0.8226;0.0253;40.8784;1.4648;1.017;230.51;0;-0.72;0;7531;7547.26;1;39020140;0;0;0;0;0;0;0;0;0;-1;0.00000000;0.00000000;0.00000000;0.00000000;0.00000000;0.00000000;0.00000000;
39020263;52;36.4;36.3;27.9;27.6;-74.8;-0.29;0;0.37;-0.06;0;0;0.8226;0.0253;40.8784;1.4648;519873;520995;315.17;0;28;0.049;0.047;39020190;0.8226;0.0253;40.8784;1.4648;1.017;230.511;0;-0.63;0;7531;7547.26;1;39020212;0;0;0;0;0;0;0;0;0;-1;0.00000000;0.00000000;0.00000000;0.00000000;0.00000000;0.00000000;0.00000000;
39020344;52;36.4;36.4;27.8;27.6;-75;-0.31;0;0.38;-0.07;0;0;0.8226;0.0253;40.8784;1.4648;519873;520995;315.172;0;28;0.05;0.047;39020263;0.8226;0.0253;40.8784;1.4648;1.017;230.511;0;-0.14;0;7531;7547.26;1;39020286;0;0;0;0;0;0;0;0;0;-1;0.00000000;0.00000000;0.00000000;0.00000000;0.00000000;0.00000000;0.00000000;
39020416;52;36.4;36.4;27.8;27.6;-74.8;-0.22;0;0.31;-0.05;0;0;0.8226;0.0253;40.8784;1.4648;519873;520995;315.422;0;28;0.049;0.047;39020344;0.8226;0.0253;40.8784;1.4648;1.017;230.51;0;-0.09;0;7531;7547.26;1;39020385;0;0;0;0;0;0;0;0;0;-1;0.00000000;0.00000000;0.00000000;0.00000000;0.00000000;0.00000000;0.00000000;
39020486;52;36.4;36.4;27.8;27.6;-75;-0.23;0;0.29;-0.04;0;0;0.8226;0.0253;40.8784;1.4648;519873;520995;315.468;0;28;0.049;0.047;39020417;0.8226;0.0253;40.8784;1.4648;1.017;230.51;0;-0.74;0;7531;7547.26;1;39020448;0;0;0;0;0;0;0;0;0;-1;0.00000000;0.00000000;0.00000000;0.00000000;0.00000000;0.00000000;0.00000000;
39020523;52;36.4;36.4;27.8;27.6;-74.9;-0.15;0;0.26;-0.03;0;0;0.8226;0.0253;40.8784;1.4648;519873;520995;315.402;0;28;0.051;0.047;39020501;0.8226;0.0253;40.8784;1.4648;1.017;230.511;0;0.15;0;7531;7547.26;1;39020501;0;0;0;0;0;0;0;0;0;-1;0.00000000;0.00000000;0.00000000;0.00000000;0.00000000;0.00000000;0.00000000;
39020576;52;36.4;36.4;27.8;27.6;-75.2;-0.15;0;0.26;-0.03;0;0;0.8226;0.0253;40.8784;1.4648;519873;520995;315.51;0;28;0.051;0.047;39020501;0.8226;0.0253;40.8784;1.4648;1.017;230.511;0;0.15;0;7531;7547.26;1;39020501;0;0;0;0;0;0;0;0;0;-1;0.00000000;0.00000000;0.00000000;0.00000000;0.00000000;0.00000000;0.00000000;
39020637;52;36.4;36.4;27.8;27.6;-73.9;-0.48;0;0.52;-0.11;0;0;0.8226;0.0253;40.8784;1.4648;519873;520995;315.616;0;28;0.051;0.046;39020576;0.8226;0.0253;40.8784;1.4648;1.017;230.511;0;0.19;0;7531;7547.26;1;39020599;0;0;0;0;0;0;0;0;0;-1;0.00000000;0.00000000;0.00000000;0.00000000;0.00000000;0.00000000;0.00000000;
39020729;52;36.4;36.5;27.9;27.7;-73.5;-0.65;0;0.66;-0.14;0;0;0.8226;0.0253;40.8784;1.4648;519873;520995;315.589;0;28;0.053;0.047;39020638;0.8226;0.0253;40.8784;1.4648;1.017;230.512;0;-0.05;0;7531;7547.26;1;39020662;0;0;0;0;0;0;0;0;0;-1;0.00000000;0.00000000;0.00000000;0.00000000;0.00000000;0.00000000;0.00000000;
39020793;52;36.3;36.5;27.9;27.7;-73.6;-0.68;0;0.69;-0.15;0;0;0.8226;0.0253;40.8784;1.4648;519873;520995;315.529;0;28;0.052;0.047;39020729;0.8226;0.0253;40.8784;1.4648;1.017;230.513;0;-0.62;0;7531;7547.26;1;39020759;0;0;0;0;0;0;0;0;0;-1;0.00000000;0.00000000;0.00000000;0.00000000;0.00000000;0.00000000;0.00000000;
39020868;52;36.4;36.4;27.9;27.7;-74.1;-0.71;0;0.73;-0.14;0;0;0.8226;0.0253;40.8784;1.4648;519873;520995;315.621;0;28;0.052;0.047;39020802;0.8226;0.0253;40.8784;1.4648;1.017;230.513;0;-0.54;0;7531;7547.26;1;39020816;0;0;0;0;0;0;0;0;0;-1;0.00000000;0.00000000;0.00000000;0.00000000;0.00000000;0.00000000;0.00000000;
39020930;52;36.4;36.4;28;27.7;-74.1;-0.68;0;0.68;-0.16;0;0;0.8226;0.0253;40.8784;1.4648;519873;520995;315.467;0;28;0.053;0.046;39020869;0.8226;0.0253;40.8784;1.4648;1.017;230.513;0;-0.26;0;7531;7547.26;1;39020892;0;0;0;0;0;0;0;0;0;-1;0.00000000;0.00000000;0.00000000;0.00000000;0.00000000;0.00000000;0.00000000;
39020999;52;36.4;36.4;27.9;27.7;-74.2;-0.7;0;0.7;-0.16;0;0;0.8226;0.0253;40.8784;1.4648;519873;520995;315.58;0;28;0.052;0.047;39020930;0.8226;0.0253;40.8784;1.4648;1.017;230.514;0;0.21;0;7531;7547.26;1;39020958;0;0;0;0;0;0;0;0;0;-1;0.00000000;0.00000000;0.00000000;0.00000000;0.00000000;0.00000000;0.00000000;
39021067;52;36.4;36.4;27.8;27.6;-74.1;-0.65;0;0.67;-0.14;0;0;0.8226;0.0253;40.8784;1.4648;519873;520995;315.688;0;28;0.052;0.047;39021000;0.8226;0.0253;40.8784;1.4648;1.017;230.514;0;-0.31;0;7531;7547.26;1;39021017;0;0;0;0;0;0;0;0;0;-1;0.00000000;0.00000000;0.00000000;0.00000000;0.00000000;0.00000000;0.00000000;
39021109;52;36.4;36.3;27.8;27.6;-74.2;-0.67;0;0.65;-0.16;0;0;0.8226;0.0253;40.8784;1.4648;519873;520995;315.621;0;28;0.053;0.047;39021090;0.8226;0.0253;40.8784;1.4648;1.017;230.515;0;-0.52;0;7531;7547.26;1;39021090;0;0;0;0;0;0;0;0;0;-1;0.00000000;0.00000000;0.00000000;0.00000000;0.00000000;0.00000000;0.00000000;
39021155;52;36.4;36.4;28;27.7;-74.2;-0.71;0;0.71;-0.14;0;0;0.8226;0.0253;40.8784;1.4648;519873;520995;315.549;0;28;0.053;0.047;39021090;0.8226;0.0253;40.8784;1.4648;1.017;230.515;0;-0.52;0;7531;7547.26;1;39021090;0;0;0;0;0;0;0;0;0;-1;0.00000000;0.00000000;0.00000000;0.00000000;0.00000000;0.00000000;0.00000000;
39021247;52;36.4;36.4;27.8;27.6;-73.9;-0.68;0;0.69;-0.15;0;0;0.8226;0.0253;40.8784;1.4648;519873;520995;315.606;0;28;0.053;0.047;39021155;0.8226;0.0253;40.8784;1.4648;1.018;230.516;0;0.1;0;7531;7547.26;1;39021200;0;0;0;0;0;0;0;0;0;-1;0.00000000;0.00000000;0.00000000;0.00000000;0.00000000;0.00000000;0.00000000;
39021338;52;36.4;36.5;28;27.8;-74;-0.66;0;0.67;-0.16;0;0;0.8226;0.0253;40.8784;1.4648;519873;520995;315.662;0;28;0.052;0.046;39021247;0.8226;0.0253;40.8784;1.4648;1.018;230.516;0;-0.29;0;7531;7547.26;1;39021270;0;0;0;0;0;0;0;0;0;-1;0.00000000;0.00000000;0.00000000;0.00000000;0.00000000;0.00000000;0.00000000;
39021403;52;36.3;36.5;27.9;27.7;-74;-0.68;0;0.68;-0.16;0;0;0.8226;0.0253;40.8784;1.4648;519873;520995;315.767;0;28;0.052;0.047;39021338;0.8226;0.0253;40.8784;1.4648;1.018;230.516;0;0.34;0;7531;7547.26;1;39021370;0;0;0;0;0;0;0;0;0;-1;0.00000000;0.00000000;0.00000000;0.00000000;0.00000000;0.00000000;0.00000000;
39021478;52;36.4;36.4;27.9;27.7;-74.3;-0.66;0;0.65;-0.16;0;0;0.8226;0.0253;40.8784;1.4648;519873;520995;315.856;0;28;0.052;0.047;39021404;0.8226;0.0253;40.8784;1.4648;1.018;230.516;0;-0.15;0;7531;7547.26;1;39021428;0;0;0;0;0;0;0;0;0;-1;0.00000000;0.00000000;0.00000000;0.00000000;0.00000000;0.00000000;0.00000000;
39021544;52;36.4;36.4;28;27.7;-74.3;-0.67;0;0.67;-0.16;0;0;0.8226;0.0253;40.8784;1.4648;519873;520995;315.873;0;28;0.053;0.047;39021478;0.8226;0.0253;40.8784;1.4648;1.018;230.516;0;-0.54;0;7531;7547.26;1;39021500;0;0;0;0;0;0;0;0;0;-1;0.00000000;0.00000000;0.00000000;0.00000000;0.00000000;0.00000000;0.00000000;
39021593;52;36.4;36.4;27.9;27.7;-74.4;-0.69;0;0.7;-0.15;0;0;0.8226;0.0253;40.8784;1.4648;519873;520995;315.954;0;28;0.052;0.046;39021544;0.8226;0.0253;40.8784;1.4648;1.018;230.517;0;-0.53;0;7531;7547.26;1;39021500;0;0;0;0;0;0;0;0;0;-1;0.00000000;0.00000000;0.00000000;0.00000000;0.00000000;0.00000000;0.00000000;
39021649;52;36.4;36.4;28;27.7;-74.2;-0.66;0;0.67;-0.16;0;0;0.8226;0.0253;40.8784;1.4648;519873;520995;315.782;0;28;0.053;0.046;39021594;0.8226;0.0253;40.8784;1.4648;1.018;230.517;0;-0.6;0;7531;7547.26;1;39021601;0;0;0;0;0;0;0;0;0;-1;0.00000000;0.00000000;0.00000000;0.00000000;0.00000000;0.00000000;0.00000000;
39021719;52;36.4;36.4;27.9;27.7;-74.5;-0.69;0;0.69;-0.14;0;0;0.8226;0.0253;40.8784;1.4648;519873;520995;315.79;0;28;0.053;0.046;39021659;0.8226;0.0253;40.8784;1.4648;1.018;230.518;0;-0.62;0;7531;7547.26;1;39021671;0;0;0;0;0;0;0;0;0;-1;0.00000000;0.00000000;0.00000000;0.00000000;0.00000000;0.00000000;0.00000000;
39021790;52;36.4;36.3;27.9;27.7;-74.3;-0.62;0;0.65;-0.14;0;0;0.8226;0.0253;40.8784;1.4648;519873;520995;315.687;0;28;0.053;0.047;39021720;0.8226;0.0253;40.8784;1.4648;1.018;230.518;0;-0.15;0;7531;7547.26;1;39021746;0;0;0;0;0;0;0;0;0;-1;0.00000000;0.00000000;0.00000000;0.00000000;0.00000000;0.00000000;0.00000000;
39021853;52;36.4;36.4;27.8;27.6;-74.2;-0.68;0;0.69;-0.16;0;0;0.8226;0.0253;40.8784;1.4648;519873;520995;315.638;0;28;0.053;0.047;39021790;0.8226;0.0253;40.8784;1.4648;1.018;230.519;0;-0.05;0;7531;7547.26;1;39021813;0;0;0;0;0;0;0;0;0;-1;0.00000000;0.00000000;0.00000000;0.00000000;0.00000000;0.00000000;0.00000000;
39021925;52;36.4;36.4;27.8;27.6;-74;-0.63;0;0.66;-0.14;0;0;0.8226;0.0253;40.8784;1.4648;519873;520995;315.67;0;28;0.053;0.047;39021868;0.8226;0.0253;40.8784;1.4648;1.018;230.519;0;-0.44;0;7531;7547.26;1;39021879;0;0;0;0;0;0;0;0;0;-1;0.00000000;0.00000000;0.00000000;0.00000000;0.00000000;0.00000000;0.00000000;
39021998;52;36.4;36.5;27.9;27.6;-74.1;-0.8;0;0.81;-0.19;0;0;0.8226;0.0253;40.8784;1.4648;519873;520995;315.63;0;28;0.053;0.046;39021925;0.8226;0.0253;40.8784;1.4648;1.018;230.519;0;-0.11;0;7531;7547.26;1;39021942;0;0;0;0;0;0;0;0;0;-1;0.00000000;0.00000000;0.00000000;0.00000000;0.00000000;0.00000000;0.00000000;
39022053;52;36.4;36.4;27.9;27.7;-74.1;-0.72;0;0.71;-0.16;0;0;0.8226;0.0253;40.8784;1.4648;519873;520995;315.464;0;28;0.053;0.047;39021999;0.8226;0.0253;40.8784;1.4648;1.018;230.52;0;0.58;0;7531;7547.26;1;39022010;0;0;0;0;0;0;0;0;0;-1;0.00000000;0.00000000;0.00000000;0.00000000;0.00000000;0.00000000;0.00000000;
39022107;52;36.4;36.4;28;27.7;-74.4;-0.63;0;0.66;-0.13;0;0;0.8226;0.0253;40.8784;1.4648;519873;520995;315.406;0;28;0.053;0.047;39022077;0.8226;0.0253;40.8784;1.4648;1.018;230.52;0;-0.79;0;7531;7547.26;1;39022077;0;0;0;0;0;0;0;0;0;-1;0.00000000;0.00000000;0.00000000;0.00000000;0.00000000;0.00000000;0.00000000;
39022151;52;36.4;36.4;27.8;27.6;-74.6;-0.46;0;0.49;-0.12;0;0;0.8226;0.0253;40.8784;1.4648;519873;520995;315.337;0;28;0.05;0.046;39022077;0.8226;0.0253;40.8784;1.4648;1.018;230.52;0;-0.79;0;7531;7547.26;1;39022077;0;0;0;0;0;0;0;0;0;-1;0.00000000;0.00000000;0.00000000;0.00000000;0.00000000;0.00000000;0.00000000;
39022215;52;36.4;36.4;27.9;27.6;-74.1;-0.43;0;0.5;-0.09;0;0;0.8226;0.0253;40.8784;1.4648;519873;520995;315.412;0;28;0.051;0.047;39022151;0.8226;0.0253;40.8784;1.4648;1.018;230.521;0;0.17;0;7531;7547.26;1;39022165;0;0;0;0;0;0;0;0;0;-1;0.00000000;0.00000000;0.00000000;0.00000000;0.00000000;0.00000000;0.00000000;
39022291;52;36.4;36.3;27.8;27.6;-74.4;-0.4;0;0.5;-0.08;0;0;0.8226;0.0253;40.8784;1.4648;519873;520995;315.4;0;28;0.051;0.047;39022215;0.8226;0.0253;40.8784;1.4648;1.018;230.522;0;-0.44;0;7531;7547.26;1;39022236;0;0;0;0;0;0;0;0;0;-1;0.00000000;0.00000000;0.00000000;0.00000000;0.00000000;0.00000000;0.00000000;
39022419;52;36.4;36.5;28;27.8;-75;-0.45;0;0.5;-0.1;0;0;0.8226;0.0253;40.8784;1.4648;519873;520995;315.159;0;28;0.052;0.047;39022291;0.8226;0.0253;40.8784;1.4648;1.018;230.522;0;0.18;0;7531;7547.26;1;39022303;0;0;0;0;0;0;0;0;0;-1;0.00000000;0.00000000;0.00000000;0.00000000;0.00000000;0.00000000;0.00000000;
39022483;52;36.5;36.4;27.8;27.6;-75.2;-0.26;0;0.36;-0.05;0;0;0.8226;0.0253;40.8784;1.4648;519873;520995;315.139;0;28;0.051;0.047;39022419;0.8226;0.0253;40.8784;1.4648;1.018;230.522;0;0.09;0;7531;7547.26;1;39022445;0;0;0;0;0;0;0;0;0;-1;0.00000000;0.00000000;0.00000000;0.00000000;0.00000000;0.00000000;0.00000000;
39022553;52;36.4;36.4;27.9;27.6;-74.4;-0.55;0;0.58;-0.12;0;0;0.8226;0.0253;40.8784;1.4648;519873;520995;315.223;0;28;0.051;0.047;39022483;0.8226;0.0253;40.8784;1.4648;1.018;230.522;0;0.07;0;7531;7547.26;1;39022503;0;0;0;0;0;0;0;0;0;-1;0.00000000;0.00000000;0.00000000;0.00000000;0.00000000;0.00000000;0.00000000;
39022623;52;36.4;36.4;27.9;27.6;-73.9;-0.44;0;0.52;-0.1;0;0;0.8226;0.0253;40.8784;1.4648;519873;520995;315.189;0;28;0.051;0.047;39022553;0.8226;0.0253;40.8784;1.4648;1.018;230.523;0;-0.43;0;7531;7547.26;1;39022581;0;0;0;0;0;0;0;0;0;-1;0.00000000;0.00000000;0.00000000;0.00000000;0.00000000;0.00000000;0.00000000;
39022692;52;36.4;36.4;27.8;27.7;-74.3;-0.35;0;0.45;-0.08;0;0;0.8226;0.0253;40.8784;1.4648;519873;520995;315.296;0;28;0.05;0.047;39022625;0.8226;0.0253;40.8784;1.4648;1.018;230.523;0;0.19;0;7531;7547.26;1;39022637;0;0;0;0;0;0;0;0;0;-1;0.00000000;0.00000000;0.00000000;0.00000000;0.00000000;0.00000000;0.00000000;
39022755;52;36.4;36.5;27.9;27.6;-74.3;-0.35;0;0.43;-0.08;0;0;0.8226;0.0253;40.8784;1.4648;519873;520995;315.261;0;28;0.05;0.046;39022693;0.8226;0.0253;40.8784;1.4648;1.018;230.523;0;-0.51;0;7531;7547.26;1;39022714;0;0;0;0;0;0;0;0;0;-1;0.00000000;0.00000000;0.00000000;0.00000000;0.00000000;0.00000000;0.00000000;
39022820;52;36.4;36.5;27.9;27.7;-74.4;-0.35;0;0.43;-0.08;0;0;0.8226;0.0253;40.8784;1.4648;519873;520995;315.332;0;28;0.05;0.046;39022756;0.8226;0.0253;40.8784;1.4648;1.018;230.524;0;0.12;0;7531;7547.26;1;39022773;0;0;0;0;0;0;0;0;0;-1;0.00000000;0.00000000;0.00000000;0.00000000;0.00000000;0.00000000;0.00000000;
39022887;52;36.4;36.4;27.8;27.6;-74.4;-0.33;0;0.4;-0.07;0;0;0.8226;0.0253;40.8784;1.4648;519873;520995;315.261;0;28;0.051;0.047;39022820;0.8226;0.0253;40.8784;1.4648;1.018;230.524;-0.01;-0.48;0;7531;7547.26;1;39022839;0;0;0;0;0;0;0;0;0;-1;0.00000000;0.00000000;0.00000000;0.00000000;0.00000000;0.00000000;0.00000000;
39022932;52;36.4;36.4;27.9;27.7;-74.1;-0.34;0;0.42;-0.07;0;0;0.8226;0.0253;40.8784;1.4648;519873;520995;315.294;0;28;0.051;0.047;39022888;0.8226;0.0253;40.8784;1.4648;1.018;230.524;0;-0.08;0;7531;7547.26;1;39022839;0;0;0;0;0;0;0;0;0;-1;0.00000000;0.00000000;0.00000000;0.00000000;0.00000000;0.00000000;0.00000000;
39022998;52;36.3;36.5;28;27.7;-74;-0.34;0;0.42;-0.07;0;0;0.8226;0.0253;40.8784;1.4648;519873;520995;315.39;0;28;0.05;0.046;39022932;0.8226;0.0253;40.8784;1.4648;1.018;230.524;0;-0.09;0;7531;7547.26;1;39022961;0;0;0;0;0;0;0;0;0;-1;0.00000000;0.00000000;0.00000000;0.00000000;0.00000000;0.00000000;0.00000000;
39023066;52;36.4;36.4;27.9;27.6;-74.3;-0.52;0;0.6;-0.1;0;0;0.8226;0.0253;40.8784;1.4648;519873;520995;315.384;0;28;0.052;0.047;39023012;0.8226;0.0253;40.8784;1.4648;1.018;230.524;0;-0.52;0;7531;7547.26;1;39023026;0;0;0;0;0;0;0;0;0;-1;0.00000000;0.00000000;0.00000000;0.00000000;0.00000000;0.00000000;0.00000000;
